shop_id,店铺名,店铺链接,总评分,评论数,人均价格,口味评分,环境评分,服务评分,分类,区域,详细地址,纬度,经度,营业时间,是否连锁,有无团购套餐,推荐菜,主营品类
H9R5zpyXvEJdHrh9,蜜雪冰城(四元桥店),https://www.dianping.com/shop/H9R5zpyXvEJdHrh9,3.5,34,11,3.6,3.5,3.5,茶饮果汁,望京,宜居南路2号楼四元桥购物中心二楼电梯口,39.98454674,116.4680308,09:30-21:00,连锁,有团购,"蜜桃四季春, 奥利奥雪王大圣代, 山楂莓莓",甜品/小吃
jV3qrRXzdUByPdJX,茶百道(北京新辰天地大兴南区店),https://www.dianping.com/shop/jV3qrRXzdUByPdJX,3.9,112,17,4.1,4.1,4.0,茶饮果汁,黄村,黄村镇清澄名苑北区27号楼-B1层-1026,39.74437638,116.3349035,10:00-22:00,连锁,有团购,"草莓奶冻, 鲜奶茉莉奶绿, 青提茉莉",奶茶
k10M9wuMRlE2iK9F,茉莉奶白(北京城乡购物中心店),https://www.dianping.com/shop/k10M9wuMRlE2iK9F,4.0,192,19,4.0,4.1,4.1,茶饮果汁,公主坟/万寿路,复兴路甲23号北京城乡购物中心1-62-层1-20,39.914819,116.314179,09:00-20:30,连锁,有团购,"茉莉奶白, 一朵茉莉花, 白兰",奶茶
jw3zbMO359XSrBuD,CHAGEE霸王茶姬(北京密云万象汇店),https://www.dianping.com/shop/jw3zbMO359XSrBuD,3.7,781,19,3.7,3.7,3.7,茶饮果汁,密云县县城,滨河路178号密云万象汇一层L144A,40.39347087,116.8494764,10:00-21:30,连锁,有团购,"山野栀子, 花田乌龙, 春日桃桃",纯茶
jru6Fkyej1pHUQNV,沪上阿姨·精选茶饮(首开通州万象汇店),https://www.dianping.com/shop/jru6Fkyej1pHUQNV,4.1,709,16,4.1,4.1,4.1,茶饮果汁,通州区,运河东大街51号6层L602b,39.910568,116.740796,10:00-22:00,连锁,有团购,"仙仙青提柠檬（大）, 厚芋泥波波奶茶, 茉莉奶绿",奶茶
jbA9InTw5m1Fo2Q9,茉莉奶白(北京平谷万达广场店),https://www.dianping.com/shop/jbA9InTw5m1Fo2Q9,3.8,514,18,3.7,3.8,3.7,茶饮果汁,平谷城区,万达广场一层1号门门口外铺必胜客隔壁,39.91207909,116.231898,10:00-22:00,连锁,有团购,"茉莉奶白, 栀子奶白, 一朵茉莉花",奶茶
jXCbxK4h4PQGdHij,爷爷不泡茶 NOYEYENOTEA(北京通州源·心店),https://www.dianping.com/shop/jXCbxK4h4PQGdHij,4.4,607,17,4.4,4.5,4.4,茶饮果汁,通州区,上码头路D.P.One源心负1层067号,39.886229,116.72129,09:30-21:30,连锁,有团购,"荔枝冰酿, 咸宁桂花, 桃桃双皮奶",其他
k2Xtx9u2HdwwOcpV,茉莉奶白(北京通州万达店),https://www.dianping.com/shop/jV5vLaVaCHyJxklP,3.9,736,19,3.9,4.0,3.9,茶饮果汁,通州北苑,新华西街58号院1号楼4层407-4022,39.913366,116.653351,10:00-22:00,连锁,有团购,"茉莉奶白, 栀子奶白, 一朵茉莉花",奶茶
jPFglVpmkzUJrsHO,茉莉奶白(北京望京新世界店),https://www.dianping.com/shop/jPFglVpmkzUJrsHO,4.2,234,18,4.2,4.2,4.2,茶饮果汁,望京,广顺南大街16号望京新世界百货一层L01F-094号,39.98957921,116.4878528,10:00-21:30,连锁,有团购,"茉莉奶白, 栀子奶白, 一朵茉莉花",奶茶
Haiqv1WI4aKhChNJ,喜茶(北京斯普瑞斯奥特莱斯店),https://www.dianping.com/shop/Haiqv1WI4aKhChNJ,4.0,547,19,4.0,4.1,4.0,茶饮果汁,金盏,森林公园东1号斯普瑞斯奥特莱斯A区1层A-67,40.01553214,116.6027204,10:00-22:00,连锁,有团购,"烤黑糖波波牛乳（首创）, 椰椰芒芒, 多肉葡萄（首创）",奶茶
j3yY9JhqKy2lDtMe,蜜雪冰城(城关店),https://www.dianping.com/shop/j3yY9JhqKy2lDtMe,3.4,19,7,3.5,3.6,3.4,茶饮果汁,城关街道,城关街道城关南路6号16号1层113,39.699746,115.991517,09:30-22:00,连锁,有团购,"脆皮大圣代, 山楂酸奶, 奥利奥雪王大圣代",甜品/小吃
j3fOyIE3Cow6nVXl,喜茶(北京海淀大悦城店),https://www.dianping.com/shop/j3fOyIE3Cow6nVXl,3.7,631,19,3.8,3.8,3.7,茶饮果汁,上庄,大牛房二巷海淀大悦城一层1F-06,40.01925572,116.3260603,10:00-22:00,连锁,有团购,"多肉葡萄(首创), 去火*纤体瓶(首创), 烤黑糖波波牛乳(首创)",奶茶
k2Xtx9u2HdwwOcpV,茶百道(北京房山星城店),https://www.dianping.com/shop/inAONYNspbx08IBH,3.8,38,13,3.8,3.9,3.7,茶饮果汁,阎村镇,阎村镇大董村南,39.72119366,116.0705993,10:00-23:00,连锁,有团购,"草莓爆柠, 浓抹米乳青团, 羽衣甘蓝·轻畅杯（轻盈版）",其他
k2Xtx9u2HdwwOcpV,喜茶(北京通州万象汇店),https://www.dianping.com/shop/iOfosevDHQxpWVvc,4.0,314,18,4.2,4.1,4.0,茶饮果汁,通州区,运河东大街51号L125号,39.912196,116.649183,10:00-22:00,连锁,有团购,"多肉葡萄(首创), 烤黑糖波波牛乳(首创), 芒芒甘露(首创)",奶茶
iLIByfmWec8lbLFA,KOI Thé(北京中关村大融城茶手作店),https://www.dianping.com/shop/iLIByfmWec8lbLFA,3.7,171,24,3.9,3.9,3.8,茶饮果汁,中关村,中关村大街15号西区3号门LG1-02（k22对面）,39.986261,116.321338,10:00-22:00,连锁,有团购,"黄金珍奶, 饼干奶茶, 葡萄乳酪奶绿",奶茶
k2Xtx9u2HdwwOcpV,Uniboba优尼波巴(北京海淀新中关购物中心店),https://www.dianping.com/shop/k1M0219tBQCGlGUd,4.1,79,18,4.1,4.1,4.2,茶饮果汁,中关村,海淀街道中关村大街19号(近丹棱街)新中关大厦地下B1层B150号,39.98423784,116.3219088,10:00-22:00,连锁,有团购,"Boba奶茶黑糖丸, 抹茶牛乳黑糖丸, 抹茶牛乳咸法酪",奶茶
k1Q7hKq3aS4kzurm,introlemons(北京朝阳合生汇店),https://www.dianping.com/shop/k1Q7hKq3aS4kzurm,4.5,293,24,4.5,4.5,4.5,茶饮果汁,九龙山,西大望路合生汇L1层HARMAY美妆店内,39.89988132,116.4859291,10:00-21:30,连锁,有团购,"话梅特调柠檬茶, 原谅绿茶, 马黛特调柠檬茶",果茶
k1eCWqRODnM4Hhlf,茶百道(平谷万达广场店),https://www.dianping.com/shop/k1eCWqRODnM4Hhlf,3.9,63,18,3.9,3.9,3.9,茶饮果汁,平谷城区,渔阳地区万达广场3F层3035号商铺,39.91207909,116.231898,10:00-22:00,连锁,有团购,"青提茉莉, 轻畅羽衣甘蓝, 洛神梅子柠檬茶",果茶
k2Xtx9u2HdwwOcpV,茉莉奶白(北京五棵松万达店),https://www.dianping.com/shop/k24dSPa0qgWNhBAa,4.0,1192,20,4.0,4.1,4.0,茶饮果汁,五棵松,复兴路69号3号楼万达广场5层5003b号,39.91207909,116.231898,10:00-22:00,连锁,有团购,"茉莉奶白, 一朵茉莉花, 栀子奶白",奶茶
k24jt8jqmc0GBKg5,蜜雪冰城(欢乐谷店),https://www.dianping.com/shop/k24jt8jqmc0GBKg5,4.0,69,8,3.9,3.9,3.9,茶饮果汁,北京欢乐谷,金蝉西路弯里中心西街一层（欢乐谷景区正门对面）,39.873927,116.500997,10:30-23:30,连锁,有团购,"奥利奥雪王大圣代, 厚芋泥奶茶, 蜜桃四季春",奶茶
k2Ay4xy1YOcMzFmi,CHAGEE霸王茶姬(朝阳合生汇店),https://www.dianping.com/shop/k2Ay4xy1YOcMzFmi,4.0,8762,20,4.0,4.1,4.0,茶饮果汁,大望路,西大望路合生汇负1层19号,39.89988132,116.4859291,10:00-22:00,连锁,有团购,"伯牙绝弦, 春日桃桃雪顶冰, 桂馥兰香",其他
k2Xtx9u2HdwwOcpV,茉莉奶白(北京通州万象汇店),https://www.dianping.com/shop/k2Xtx9u2HdwwOcpV,3.9,517,20,3.9,4.0,4.0,茶饮果汁,通州区,运河东大街51号-B1层B114,39.910946,116.741395,10:00-22:00,连锁,有团购,"茉莉奶白, 栀子奶白, 一朵茉莉花",奶茶
k2hOJQQ8oQiIsDsY,隆延茶铺·正统奶茶(通州万达店),https://www.dianping.com/shop/k2hOJQQ8oQiIsDsY,4.3,331,18,4.3,4.2,4.3,茶饮果汁,通州北苑,新华西街万达广场西区地下一层东8yeah巷CB1011号,39.91207909,116.231898,10:00-21:30,连锁,有团购,"隆记米酿奶茶, 山谷黄杏冰茶, 松风乌龙奶茶",奶茶
k2oe5Y9iWWlMZGKh,KOI Thé(北京合生汇店),https://www.dianping.com/shop/k2oe5Y9iWWlMZGKh,4.1,721,24,4.0,4.1,4.1,茶饮果汁,九龙山,西大望路甲22号院1号楼合生汇购物中心L5层L5-13B,39.899843,116.487104,10:00-22:00,连锁,有团购,"PEANUTS联名饼干奶茶, 黄金珍奶, 浆果乳酪奶绿",奶茶
k2rZ0nTfbeLjWwcj,1点点(太阳宫凯德mall店),https://www.dianping.com/shop/k2rZ0nTfbeLjWwcj,3.6,10,17,3.6,3.7,3.6,茶饮果汁,太阳宫,太阳宫中路凯德MALL4楼,39.99867624,116.4751419,10:00-22:00,连锁,有团购,"苹果奶绿, 橘C美式, 甜心芭乐奶绿",奶茶
k3HrBG8SpbxFRbyd,蜜雪冰城(环湖小镇店),https://www.dianping.com/shop/k3HrBG8SpbxFRbyd,3.6,17,8,3.6,3.6,3.6,茶饮果汁,土桥,张家湾镇西定福庄环湖小镇西商16号,39.84910246,116.7432263,10:30-20:00,连锁,有团购,"四季春茶（热/冰）, 珍珠奶茶, 香芋冰淇淋",奶茶
k3jyoXtcSZ5qLorf,喜茶(北京平谷华联店),https://www.dianping.com/shop/k3jyoXtcSZ5qLorf,3.8,450,18,3.9,3.9,3.7,茶饮果汁,平谷城区,迎宾街1号院22号楼1层f1-05,40.152338,117.100501,10:00-21:30,连锁,有团购,"多肉葡萄(首创), 烤黑糖波波牛乳(首创), 椰椰芒芒",奶茶
k3nViKK9DIhYoJ6N,LINLEE林里·手打柠檬茶(大兴凯德店),https://www.dianping.com/shop/k3nViKK9DIhYoJ6N,3.9,301,18,4.0,4.0,3.9,茶饮果汁,大兴区,凯德MALL负一层,39.99867624,116.4751419,10:00-22:00,连锁,有团购,"招牌手打柠檬茶, 特浓手打柠檬茶, 海底椰冰柠茶",果茶
k3qpAWqn1NJPCSOf,山喜之手作(合生汇店),https://www.dianping.com/shop/k3qpAWqn1NJPCSOf,3.7,631,23,3.8,3.8,4.0,茶饮果汁,九龙山,双井街道西大望路甲21号朝阳合生汇负一层02B山喜之手作（地铁7号线和14号线九龙山站B口出）,39.899506,116.487003,10:00-22:00,连锁,有团购,"磨 · 黑芝麻椰椰冰, 树上熟 · 芭乐桃桃, 荔浦芋头米麻薯",其他
k4IEcuPJOB9vUVVO,Uniboba优尼波巴(北京东城王府井喜悦店),https://www.dianping.com/shop/k4IEcuPJOB9vUVVO,3.8,38,18,3.8,3.8,3.8,茶饮果汁,王府井/东单,王府井喜悦购物中心B1层P006号（北冰洋旁）,39.92223159,116.4186675,10:00-22:00,连锁,有团购,"Boba奶茶黑糖丸, 莉莉蜜桃冰奶, 可可牛乳",奶茶
k4OGzT2Ig0dpog6z,茉莉奶白(北京龙湖大兴天街店),https://www.dianping.com/shop/k4OGzT2Ig0dpog6z,4.2,1108,19,4.2,4.3,4.2,茶饮果汁,龙湖天街购物中心,永兴路7号院1号楼1F-C03,39.690815,116.325814,10:00-22:00,连锁,有团购,"茉莉奶白, 栀子奶白, 一朵茉莉花",奶茶
k4RUKWSnC7M2mLvk,喜茶(北京蓝色港湾店),https://www.dianping.com/shop/k4RUKWSnC7M2mLvk,4.0,5611,23,4.0,4.0,3.9,茶饮果汁,亮马桥/三元桥,公园路蓝色港湾室内步行街1层SM1-553号商铺,40.39830025,116.5355505,10:00-22:00,连锁,有团购,"轻芝莓莓, 芝芝芒芒（首创）, 多肉葡萄(首创)",果茶
HahKpfbjMBf54JPW,CHAGEE霸王茶姬(北京凯德mall太阳宫店),https://www.dianping.com/shop/HahKpfbjMBf54JPW,4.0,371,17,3.9,4.0,3.9,茶饮果汁,太阳宫,太阳宫中路12号楼一层01-42,39.915981,116.379577,10:00-22:00,连锁,有团购,"山野栀子, 花田乌龙",纯茶
H5BJwCioFTnOSrLt,爷爷不泡茶 NOYEYENOTEA(北京十里河店),https://www.dianping.com/shop/H5BJwCioFTnOSrLt,3.9,51,15,3.9,4.0,3.9,茶饮果汁,十里河,东三环南路102路一层106B-2室,39.768575,116.436162,10:00-22:00,连锁,有团购,"咸宁桂花, 荔枝冰酿, 初恋玫瑰青提",其他
H6zDAMHlXwMmPHLT,1点点(通州万象汇店),https://www.dianping.com/shop/H6zDAMHlXwMmPHLT,3.8,95,18,3.8,3.8,3.7,茶饮果汁,通州区,运河东大街51号通州万象汇5层502a号,39.90339339,116.6694045,10:00-22:00,连锁,有团购,"波霸奶绿, 四季奶青, 苹果茉莉绿",奶茶
H7gSOxRxtIa0RCch,CHAGEE霸王茶姬(天宫院凯德店),https://www.dianping.com/shop/H7gSOxRxtIa0RCch,4.1,992,19,4.0,4.1,4.1,茶饮果汁,大兴区,华佗路2号L1-17B.L1-18A,39.677864,116.325561,09:30-21:30,连锁,有团购,"伯牙绝弦, 桂馥兰香, 桂子飘飘",其他
H7ep0H0el3NFbpX7,李茶的茶(The Box店),https://www.dianping.com/shop/H7ep0H0el3NFbpX7,4.3,844,24,4.3,4.2,4.3,茶饮果汁,朝外大街,朝阳门外大街12号TheBox南门,39.92865,116.451918,15.5,连锁,有团购,"爆红山楂柠檬茶, 兰皇金观音奶茶, 苹果大红袍",果茶
H7U8echdhsduaTpL,茶百道(北京海淀大悦城店),https://www.dianping.com/shop/H7U8echdhsduaTpL,4.1,114,15,4.0,4.0,4.1,茶饮果汁,西北旺,大牛房二巷海淀大悦城4层03,40.01925572,116.3260603,10:00-22:00,连锁,有团购,"青提茉莉, 黑糖珍珠奶茶Pro, 西瓜啵啵",奶茶
H7I8EVpDo3o6AYWX,蜜雪冰城(泰河园物美店),https://www.dianping.com/shop/H7I8EVpDo3o6AYWX,3.3,54,9,3.5,3.5,3.3,茶饮果汁,亦庄,物美泰河园店一层商铺,39.92102237,116.351353,10:30-20:00,连锁,有团购,"香芋冰淇淋, 香芋脆皮小圣代, 蓝莓果粒酸奶",甜品/小吃
H79PoEhgRH9vRtTI,蜜雪冰城(昌盛园店),https://www.dianping.com/shop/H79PoEhgRH9vRtTI,3.8,37,11,3.8,3.9,3.8,茶饮果汁,昌平镇,城南街道介山居委会北侧5号底商,40.21663284,116.2636953,10:00-23:00,连锁,有团购,"椰果奶茶, 脆皮大圣代, 椰椰拿铁",奶茶
H75b5g9XpzPiR2It,cococean椰子水(合生汇店),https://www.dianping.com/shop/H75b5g9XpzPiR2It,4.4,601,30,4.4,4.4,4.4,茶饮果汁,大望路,西大望路甲22号院1号楼合生汇购物中心B1层B1-15A号,40.669387,116.3047816,09:30-22:00,连锁,有团购,"椰子三兄弟, 新鲜椰子水, 马蹄爆爆珠椰子水",其他
H6cAg6jedeB4O6KC,蜜雪冰城(沿海赛洛城店),https://www.dianping.com/shop/H6cAg6jedeB4O6KC,3.4,51,8,3.5,3.7,3.5,茶饮果汁,百子湾,百子湾东里321号楼1层321-06,40.581311,116.51299,11:00-23:00,连锁,有团购,"芝士蜜桃奶盖, 草莓摇摇奶昔, 香芋脆皮小圣代",奶茶
HaPd7Qc05G9zfkVr,CHAGEE霸王茶姬(八达岭奥莱店),https://www.dianping.com/shop/HaPd7Qc05G9zfkVr,3.8,553,19,3.9,3.9,3.9,茶饮果汁,南口镇,八达岭奥莱1层118铺位,40.36795086,115.9844914,09:30-21:00,连锁,有团购,"山野栀子, 花田乌龙",纯茶
H6a8plZp5GNCzRFM,吴裕泰,https://www.dianping.com/shop/H6a8plZp5GNCzRFM,3.8,52,10,3.9,3.8,3.8,茶饮果汁,雁栖开发区,雁栖镇范各庄一区顶秀美泉家园丙8号楼1层102室,40.37638004,116.676285,暂无,非连锁,有团购,"抹茶冰淇淋, 花茶口味冰淇淋",甜品/小吃
H6P20iHBRukMv85Q,淡马茶坊(北京中关村大融城店),https://www.dianping.com/shop/H6P20iHBRukMv85Q,3.7,256,23,3.8,3.9,3.9,茶饮果汁,中关村,海淀大街8号,40.467183,116.4133837,10:00-22:00,连锁,有团购,"闽南芭乐油柑王, 潮汕黄皮, 白桃油柑",其他
H64CMo61nmvoEk7o,茶话弄(首都机场T2店),https://www.dianping.com/shop/H64CMo61nmvoEk7o,3.9,132,18,3.9,3.8,3.8,茶饮果汁,首都机场,仁和地区首都机场2号航站楼国内隔离区GC204号店铺,40.08669619,116.6007327,06:00-21:00,连锁,有团购,"桂花引, 南山烟雨, 花开富贵",其他
H5vUoQCBOJJipFwT,LINLEE林里·手打柠檬茶(蓝色港湾店),https://www.dianping.com/shop/H5vUoQCBOJJipFwT,4.1,894,19,4.1,4.2,4.2,茶饮果汁,蓝色港湾,朝阳公园路6号院1号楼2层VD2-11号,39.975518,116.498261,10:00-22:00,连锁,有团购,"招牌手打柠檬茶, 山茶花手打柠檬茶, 白葡萄冰柠茶",果茶
H5JZSLFjCnjYvjQp,霸王茶姬(北京首都机场T3航站楼店),https://www.dianping.com/shop/H5JZSLFjCnjYvjQp,4.0,83,20,4.0,4.1,4.0,茶饮果汁,首都机场,首都国际机场T3航站楼2层（近国内到达层C口）,39.48519789,116.3265311,10:00-22:00,连锁,有团购,"伯牙绝弦, 花田乌龙, 桂馥兰香",纯茶
H7ir6riVIYsbL131,玖号餐车·水吧,https://www.dianping.com/shop/H7ir6riVIYsbL131,3.6,48,36,3.6,3.7,3.6,茶饮果汁,金盏,天环北路与南影路交叉口西北260米,40.003889,116.523609,暂无,非连锁,有团购,"卤肉饭, 土豆炖牛肉, 大炖菜",其他
H7qXUQH8SajpzRnT,CHAGEE霸王茶姬(首开福茂购物中心店),https://www.dianping.com/shop/H7qXUQH8SajpzRnT,4.2,396,18,4.2,4.1,4.1,茶饮果汁,刘家窑/宋家庄,三丰北里5号楼01层(01)101内2-120号,40.323095,116.3047816,8:00-21:30,连锁,有团购,"山野栀子, 玫瑰丛中, 花田乌龙",纯茶
H7yL70OtqJfpADqy,HI MANGO 很芒の芒(长楹天街店),https://www.dianping.com/shop/H7yL70OtqJfpADqy,4.1,1315,20,4.1,4.1,4.1,茶饮果汁,常营,常通路1号楼长楹天街西区4层,39.93008074,116.6054032,10:00-22:00,连锁,有团购,"暴粒芒果桶, 杨枝甘露【招牌必点】, 芒果绵绵冰",果茶
H80FK19o1gYIs2xS,CHAGEE霸王茶姬(北京后沙峪山姆店),https://www.dianping.com/shop/H80FK19o1gYIs2xS,4.1,1034,19,4.2,4.2,4.1,茶饮果汁,首都机场/机场路,安平街5号院3号楼1至5层101内一层S-F1-19B号,40.22065,116.4133837,09:00-21:30,连锁,有团购,"霸王茶姬, 花田乌龙, 山野栀子",纯茶
k2Xtx9u2HdwwOcpV,茉莉奶白(北京新西单大悦城店),https://www.dianping.com/shop/H85tGcim7bZPjgAu,4.0,2592,19,4.0,4.0,3.9,茶饮果汁,西单,西单北大街131号西单大悦城4F-D25号,39.91696315,116.379306,10:00-21:30,连锁,有团购,"茉莉奶白/一朵茉莉花, 粉茉针王/粉茉抹茶, 永春佛手",纯茶
H8QATiV9ChsGCNUz,茉莉奶白(北京怀柔万达店),https://www.dianping.com/shop/H8QATiV9ChsGCNUz,3.7,849,19,3.7,3.7,3.7,茶饮果汁,怀柔城区,万达广场一层1025号铺,39.91207909,116.231898,10:00-22:00,连锁,有团购,"茉莉奶白, 一朵茉莉花, 针王苹果",奶茶
H8UgA2JwCZlvWJhh,茉莉奶白(北京龙湖房山天街店),https://www.dianping.com/shop/H8UgA2JwCZlvWJhh,4.2,856,18,4.2,4.3,4.3,茶饮果汁,良乡,拱辰街道政通南路2号院1号楼地下1层24a商业,40.157495,116.4133837,10:00-22:00,连锁,有团购,"茉莉奶白, 一朵栀子花, 一朵茉莉花",奶茶
H8UpzwQXuaE9YYYz,KOI Thé(北京荟聚中心店),https://www.dianping.com/shop/H8UpzwQXuaE9YYYz,3.9,364,23,3.9,4.1,4.1,茶饮果汁,西红门,欣宁街15号3层03A14A号商铺,39.794763,116.334379,10:00-22:00,连锁,有团购,"饼干奶茶, 浆果乳酪奶绿, 黄金珍奶",奶茶
H8VClfPnoaRR74Lm,KOI Thé(北京龙湖长楹天街店),https://www.dianping.com/shop/H8VClfPnoaRR74Lm,4.2,472,22,4.2,4.2,4.3,茶饮果汁,常营,常通路1号龙湖长楹天街B栋4F-27号商铺,39.93008074,116.6054032,10:00-22:00,连锁,有团购,"PEANUTS联名饼干奶茶, 黄金珍奶, 浆果乳酪奶绿",奶茶
H8Xibb8nNBYe8g4I,蜜雪冰城(顺义校区校外店),https://www.dianping.com/shop/H8Xibb8nNBYe8g4I,3.6,28,10,3.7,3.6,3.6,茶饮果汁,顺义区,杨镇地区一街村村委会西1000米,40.150039,116.4133837,10:00-21:00,连锁,有团购,"脆皮大圣代, 奥利奥雪王大圣代, 龙井轻乳茶",甜品/小吃
H8ZbShBVC5OMp8ow,茉莉奶白(北京槐房万达广场店),https://www.dianping.com/shop/H8ZbShBVC5OMp8ow,3.9,856,19,4.0,4.0,3.9,茶饮果汁,新宫,南苑西路39号槐房万达广场一层1060B号铺,39.81863979,116.3798574,10:00-22:00,连锁,有团购,"茉莉奶白, 一朵茉莉花, 白兰",奶茶
H95eK5Q0YsEMtQTd,喜茶(北京荟聚中心店),https://www.dianping.com/shop/H95eK5Q0YsEMtQTd,3.9,5872,22,4.0,3.9,3.9,茶饮果汁,西红门,欣宁街15号北京荟聚中心L1-01G75号（G区电梯旁）,39.79406761,116.3330778,10:00-22:00,连锁,有团购,"多肉葡萄（首创）, 多肉葡萄(首创), 椰椰芒芒",果茶
EDJTEaIR8XJcBK0G,隆延茶铺·正统奶茶(乐成中心店),https://www.dianping.com/shop/EDJTEaIR8XJcBK0G,4.1,303,19,4.1,4.1,4.1,茶饮果汁,双井,乐成中心B座北京市朝阳区东三环中路辅路24号B1,39.8994542,116.4689798,10:00-22:00,连锁,有团购,"隆记米酿奶茶, 山谷黄杏果茶, 香煎抹茶",奶茶
H9Tu2UvRwCC3O02M,LINLEE林里·手打柠檬茶(长楹天街店),https://www.dianping.com/shop/H9Tu2UvRwCC3O02M,4.3,1383,19,4.2,4.2,4.2,茶饮果汁,常营,长楹天街西区B2嗨时区内（近米村拌饭）,39.93101391,116.6050018,10:00-21:30,连锁,有团购,"特浓手打柠檬茶, 招牌霸王杯柠檬茶, 清新版手打柠檬茶",果茶
H9Zh4qQiwNA6recY,LINLEE林里·手打柠檬茶(顺义华联店),https://www.dianping.com/shop/H9Zh4qQiwNA6recY,3.9,1102,18,3.9,3.9,3.9,茶饮果汁,顺义城区,新顺南大街8号院1幢一层F1-07（华联商厦）,39.93443855,116.6461634,10:00-21:30,连锁,有团购,"招牌手打柠檬茶, 白葡萄手打柠檬茶, 海底椰冰柠茶",果茶
H9xxvrhLyvKYPDGZ,茉莉奶白(北京丽泽龙湖天街店),https://www.dianping.com/shop/H9xxvrhLyvKYPDGZ,4.0,513,18,4.0,4.0,4.0,茶饮果汁,丽泽桥/丰管路,丽泽龙湖天街购物中心B2层B2-21号,40.149274,116.325461,10:00-21:30,连锁,有团购,"茉莉奶白, 一朵茉莉花, 栀子奶白",奶茶
HaLy4HguFIsUNz8F,茉莉奶白(北京大兴新辰天地店),https://www.dianping.com/shop/HaLy4HguFIsUNz8F,4.1,501,19,4.2,4.2,4.2,茶饮果汁,黄村,兴华大街37号新辰天地购物中心南区1层1F-049号,40.134891,116.3047816,10:00-21:30,连锁,有团购,"茉莉奶白, 栀子奶白, 一朵茉莉花",奶茶
k2Xtx9u2HdwwOcpV,蜜雪冰城(北京科技学院店),https://www.dianping.com/shop/k4cWWL1RjtZ2f5wS,3.6,4,8,3.5,3.6,3.5,茶饮果汁,沙河,沙河镇沙阳路18号北京科技职业学院校内3A公寓旁面包房,40.12364909,116.257172,10:30-20:00,连锁,有团购,"山楂酸奶, 春日龙井茶, 香柠绿茶",纯茶
k4qak4XGhSRDnSGf,茉莉奶白(北京华堂·新辰汇店),https://www.dianping.com/shop/k4qak4XGhSRDnSGf,3.6,205,18,3.7,3.7,3.7,茶饮果汁,亚运村,北四环东路108号华堂·新辰汇4F层,40.074732,116.427255,10:00-21:30,连锁,有团购,"茉莉奶白, 栀子奶白, 开心果茉莉椰",奶茶
k4ryi9zsT19cW73f,蜜雪冰城(四惠店),https://www.dianping.com/shop/k4ryi9zsT19cW73f,3.3,43,9,3.5,3.5,3.3,茶饮果汁,四惠,力源里北街25院4号楼1层115,39.914941,116.521638,09:00-23:00,连锁,有团购,"山楂酸奶, 青团椰椰, 奥利奥雪王大圣代",风味牛奶
l5nk8G1rTGkz2W3d,沪上阿姨·精选茶饮(丰台槐房万达店),https://www.dianping.com/shop/l5nk8G1rTGkz2W3d,3.8,63,17,3.8,3.8,3.8,茶饮果汁,新宫,槐房南路6号院槐房万达广场四楼4005号商铺,39.81863979,116.3798574,10:00-22:00,连锁,有团购,"羽衣甘蓝纤体瓶, 多肉葡萄金砖（大）, 厚芋泥桃胶大满贯",奶茶
l6w2VnN2dnE3wGwK,茶话弄(北京大兴时代天街店),https://www.dianping.com/shop/l6w2VnN2dnE3wGwK,4.2,462,17,4.2,4.2,4.2,茶饮果汁,龙湖天街购物中心,龙湖大兴时代天街1FC57,40.003069,116.3047816,10:00-22:00,连锁,有团购,"梅占摇红, 桂花引, 花开富贵",其他
l6lh4UabDWZYhoHJ,CHAGEE霸王茶姬(北京南站1店),https://www.dianping.com/shop/l6lh4UabDWZYhoHJ,4.0,100,22,4.1,4.0,4.0,茶饮果汁,北京南站/开阳里,北京南站高架层BJN-GC06号,39.87127082,116.3862665,08:00-21:00,连锁,有团购,"伯牙绝弦, 山野栀子, 万里木兰",其他
l6Q70trnb2OeguNK,CHAGEE霸王茶姬(北京航天万源广场店),https://www.dianping.com/shop/l6Q70trnb2OeguNK,4.3,591,19,4.3,4.3,4.3,茶饮果汁,旧宫,万源北路航天万源广场物美大卖场F1-A006号商铺（近东门）,39.79048456,116.5256401,08:00-22:00,连锁,有团购,"伯牙绝弦, 桂馥兰香, 春日桃桃",其他
k2Xtx9u2HdwwOcpV,蜜雪冰城(富强路店),https://www.dianping.com/shop/l6EvwYw77JujSHmS,3.6,17,6,3.6,3.6,3.7,茶饮果汁,黄村,黄村镇兴华中路9号5幢1层,39.742575,116.339603,07:00-23:00,连锁,有团购,"春日龙井茶, 葡萄冰美式, 雪王雪顶咖啡",纯茶
l5u5xj5wwKkS5Us1,CHAGEE霸王茶姬(隆华奥特莱斯购物广场店),https://www.dianping.com/shop/l5u5xj5wwKkS5Us1,4.5,1809,20,4.5,4.5,4.4,茶饮果汁,顺义城区,贯通路18号隆化奥特莱斯一层A-046,40.134891,116.64877,09:00-22:00,连锁,有团购,"【久别重逢】花田乌龙+春日桃桃（赠徽章）, 山野栀子, 【久别重逢】花田乌龙",纯茶
l5oGISUKVcGhHTQk,爷爷不泡茶NOYEYENOTEA(北京长楹天街店),https://www.dianping.com/shop/l5oGISUKVcGhHTQk,4.3,322,18,4.2,4.2,4.2,茶饮果汁,常营,常通路2号龙湖长楹天街B栋-B2-06a,39.93008074,116.6054032,09:30-21:30,连锁,有团购,"荔枝冰酿, 空山栀子, 咸宁桂花",其他
l5adAJGgX01BJzsk,茶百道(西直门JKFUN店),https://www.dianping.com/shop/l5adAJGgX01BJzsk,4.2,132,15,4.2,4.2,4.1,茶饮果汁,西直门/动物园,西直门外大街116号JKFUN-B1层,39.946996,116.359287,10:00-21:30,连锁,有团购,"超厚芋泥奶茶, 青提茉莉, 草莓爆柠",奶茶
k4x4xwq58Meap6jW,LINLEE林里·手打柠檬茶(怀柔万达店),https://www.dianping.com/shop/k4x4xwq58Meap6jW,3.7,618,18,3.7,3.7,3.7,茶饮果汁,怀柔城区,府前西街青春万达广场六楼,40.323095,116.636247,10:00-21:30,连锁,有团购,"招牌手打柠檬茶, 海底椰手打冰柠茶, 金桔白柚冰柠茶",果茶
l4wNBV7MXFK2Dqlj,蜜雪冰城(天秀店),https://www.dianping.com/shop/l4wNBV7MXFK2Dqlj,3.7,42,11,3.7,3.7,3.6,茶饮果汁,颐和园,天秀路10号中国农大国际创业园2号楼1007室,40.02683177,116.2838935,10:30-20:30,连锁,有团购,"奥利奥雪王大圣代, 蓝莓果粒茶, 爽脆魔芋",果茶
l4qSiK1Yvnnc0sBD,LINLEE林里·手打柠檬茶(瀛海环宇坊店),https://www.dianping.com/shop/l4qSiK1Yvnnc0sBD,4.0,367,19,4.1,4.1,4.0,茶饮果汁,大兴区,瀛海镇瀛旭巷2号院1号楼B1层B118-2,39.7642889,116.4551448,10:00-22:00,连锁,有团购,"招牌手打柠檬茶, 鸭屎香手打柠檬茶, 海底椰手打冰柠茶",果茶
k2Xtx9u2HdwwOcpV,吴裕泰(首开通州万象汇店),https://www.dianping.com/shop/l4Ub0gzKWOeuwXtK,4.0,103,14,4.0,4.1,4.1,茶饮果汁,通州区,通济路万象汇B2层B228号,39.94725108,116.522607,09:00-22:00,连锁,有团购,"花茶冰淇淋, 抹茶冰淇淋",甜品/小吃
l4Nirvs5CjzbqgYU,喜茶(北京密云万象汇店),https://www.dianping.com/shop/l4Nirvs5CjzbqgYU,3.6,210,19,3.7,3.6,3.6,茶饮果汁,密云县县城,滨河路178号万象汇L107号商铺,39.94725108,116.522607,10:00-21:00,连锁,有团购,"轻芝多肉葡萄, 烤黑糖波波牛乳茶, 超多肉芒芒甘露",果茶
l3rX1EbkhgwvDfMR,沪上阿姨·精选茶饮(新街口北大街店),https://www.dianping.com/shop/l3rX1EbkhgwvDfMR,3.6,5,14,3.6,3.6,3.5,茶饮果汁,新街口,新街口北大街52号,39.95106,116.378883,09:00-23:30,连锁,有团购,"恋恋桃乌青团, 羽衣甘蓝纤体瓶, 厚芋泥波波奶茶",奶茶
l3M132VqLX9c6zOl,喜茶(北京延庆万达广场店),https://www.dianping.com/shop/l3M132VqLX9c6zOl,3.7,199,20,3.7,3.7,3.7,茶饮果汁,延庆城区,万达广场1层1007铺,39.91207909,116.231898,10:00-21:00,连锁,有团购,"多肉葡萄(首创), 超多肉芒芒甘露, 多肉青提",果茶
l7JyJ9h13wfxWCm9,茉莉奶白(北京王府井APM店),https://www.dianping.com/shop/l7JyJ9h13wfxWCm9,3.9,1344,19,4.0,4.0,3.9,茶饮果汁,王府井/东单,王府井大街138号新东安广场B1层B119号店铺,39.9204136,116.4183563,10:00-22:00,连锁,有团购,"茉莉奶白, 栀子奶白, 一朵茉莉花",奶茶
l7MZWQKxrf4TFpSO,奈雪的茶(新辰天地大兴店),https://www.dianping.com/shop/l7MZWQKxrf4TFpSO,4.2,531,20,4.2,4.2,4.2,茶饮果汁,黄村,兴华大街新辰天地1层035号,39.764206,116.558838,09:00-21:30,连锁,有团购,"霸气芝士草莓, 霸气葡萄, 霸气杨枝甘露",其他
l7pnLRhwK2sxjSst,茉莉奶白(北京太阳宫凯德店),https://www.dianping.com/shop/l7pnLRhwK2sxjSst,3.9,194,17,3.9,3.8,3.8,茶饮果汁,太阳宫,宫中路12号太阳宫凯德购物中心B1-K10/K11,39.9782489,116.4529325,10:00-22:00,连锁,有团购,"茉莉奶白, 白兰, 开心果茉莉椰",奶茶
l7r5OtrZCIU3BbxZ,1点点(大兴天街店),https://www.dianping.com/shop/l7r5OtrZCIU3BbxZ,3.6,10,16,3.7,3.7,3.7,茶饮果汁,龙湖天街购物中心,龙湖天街2F-20b,39.769621,116.340542,10:00-22:00,连锁,有团购,"苹果茉莉绿, 冰淇淋红茶, 蔓越莓奶绿",奶茶
l8SNNGjUVong5U4D,喜茶(北京怀柔京北大世界店),https://www.dianping.com/shop/l8SNNGjUVong5U4D,3.7,521,18,3.7,3.7,3.7,茶饮果汁,京北大世界,府前街14号京北大世界一层中庭位置,39.99887681,116.3168326,09:00-22:00,连锁,有团购,"多肉葡萄(首创), 超多肉芒芒甘露, 烤黑糖波波牛乳(首创)",果茶
l8XMSrJntNbU2WrD,茉莉奶白(北京万柳华联店),https://www.dianping.com/shop/l8XMSrJntNbU2WrD,4.1,365,19,4.2,4.2,4.2,茶饮果汁,万柳,巴沟路2号万柳华联购物中心B1层B1-69号铺,39.97784404,116.3029705,10:00-22:00,连锁,有团购,"茉莉奶白, 一朵茉莉花, 白兰",奶茶
l8b5n9gQC11NarcJ,蜜雪冰城(南关地铁站店),https://www.dianping.com/shop/l8b5n9gQC11NarcJ,3.5,3,8,3.5,3.4,3.5,茶饮果汁,良乡,拱辰南大街93号3号楼1-2层6-1号,39.73748984,116.149923,10:00-22:00,连锁,有团购,"雪王雪顶咖啡, 葡萄味果冻, 蜜桃四季春",果茶
l8xGEN5eJ8kXMBiz,喜茶(北京后沙峪山姆店),https://www.dianping.com/shop/l8xGEN5eJ8kXMBiz,4.1,177,19,4.1,4.0,4.1,茶饮果汁,首都机场/机场路,安平街5号院3号楼一层S-F1-17A号,40.124104,116.565612,10:00-22:00,连锁,有团购,"多肉葡萄(首创), 超多肉芒芒甘露, 烤黑糖波波牛乳(首创)",果茶
l9745jd814Tb5oAq,茶百道(黄村东大街店),https://www.dianping.com/shop/l9745jd814Tb5oAq,4.2,94,18,4.2,4.2,4.2,茶饮果汁,黄村,黄村东大街与火神庙西街交叉口西100米（物美大卖场店进口旁边）,39.92102237,116.351353,10:00-23:00,连锁,有团购,"三重莓果·晚安杯, 竹香猕猴桃, 轻畅羽衣甘蓝",果茶
l982oYNnwapVj706,茉莉奶白(北京惠多港店),https://www.dianping.com/shop/l982oYNnwapVj706,4.2,407,18,4.2,4.3,4.2,茶饮果汁,富力又一城,黄厂路惠多港购物中心2层2F-007号铺,39.856263,116.55698,10:00-22:00,连锁,有团购,"茉莉奶白, 一朵茉莉花, 栀子奶白",奶茶
l9zmnP5RU8S8W07e,喜茶(北京通州万达店),https://www.dianping.com/shop/l9zmnP5RU8S8W07e,4.0,2643,21,4.0,4.0,3.9,茶饮果汁,新华大街,新华西街58号通州万达广场1F,39.91265659,116.649835,10:00-22:00,连锁,有团购,"多肉葡萄(首创), 轻芝莓莓, 芝芝芒芒（首创）",果茶
la18PSk0CdS9NvJK,茉莉奶白(北京丰科万达店),https://www.dianping.com/shop/la18PSk0CdS9NvJK,4.1,1951,18,4.1,4.2,4.1,茶饮果汁,世界公园,新村街道丰科路6号万达广场B1002B号铺位,39.830275,116.305385,10:00-22:00,连锁,有团购,"一朵茉莉花, 一朵栀子花, 粉茉针王/粉茉抹茶",纯茶
la2ld9D3khmxN6xo,蜜雪冰城(北大地店),https://www.dianping.com/shop/la2ld9D3khmxN6xo,3.7,42,8,3.7,3.7,3.7,茶饮果汁,北大地/万丰路,北大地78号,40.581311,116.601854,,连锁,有团购,"雪王大圣代·奥利奥饼干风味, 奥利奥雪王大圣代, 芒果雪王大圣代",甜品/小吃
laB0zHqVyvkzAVwH,爷爷不泡茶 NOYEYENOTEA(北京中关村大融城店),https://www.dianping.com/shop/laB0zHqVyvkzAVwH,4.1,88,17,4.0,4.1,4.1,茶饮果汁,中关村,"中关村大街15号,中关村大街融城西区LG1层42号",39.93417395,116.3580421,10:00-22:00,连锁,有团购,"荔枝冰酿, 咸宁桂花, 空山栀子",其他
laJaDlhIlGM4GKOK,喜茶(北京大族广场店),https://www.dianping.com/shop/laJaDlhIlGM4GKOK,4.0,1571,21,4.1,4.1,4.1,茶饮果汁,亦庄,大族广场1层,39.797548,116.520416,10:00-22:00,连锁,有团购,"多肉葡萄（首创）, 满杯红柚(首创), 椰椰芒芒",果茶
laLU0eba4soIL6TR,茶百道(星光影视园店),https://www.dianping.com/shop/laLU0eba4soIL6TR,3.8,25,16,3.8,3.8,3.8,茶饮果汁,西红门,观音寺街道广平大街和金西路交叉口(西红门星光视界中心对面),39.79567651,116.3554217,17.5,连锁,有团购,"豆乳玉麒麟, 草莓奶冻, 山茶碧螺青团",纯茶
laQPlVdQAnSJcIbR,蜜雪冰城(水城广场店),https://www.dianping.com/shop/laQPlVdQAnSJcIbR,3.4,24,6,3.5,3.3,3.3,茶饮果汁,昌平区,北七家镇宏福水城广场1F-A-108,40.10691008,116.376728,09:30-23:00,连锁,有团购,"蓝莓果粒酸奶, 春日龙井茶, 香芋脆皮小圣代",风味牛奶
l3Ibz0kVTVXFOxC2,爷爷不泡茶 NOYEYENOTEA(北京首创奥莱店),https://www.dianping.com/shop/l3Ibz0kVTVXFOxC2,4.2,127,15,4.2,4.2,4.2,茶饮果汁,长阳镇,长阳镇悦盛路6号院首创奥特莱斯XZF1-05号,39.7693923,116.1935099,10:00-21:30,连锁,有团购,"荔枝冰酿, 初恋玫瑰青提, 空山栀子",其他
l3BRnAWyLa7mewog,树夏(朝阳大悦城店),https://www.dianping.com/shop/l3BRnAWyLa7mewog,4.0,1430,20,4.1,4.1,4.0,茶饮果汁,青年路,平房乡青年路64号朝阳大悦城8F-19号,39.930772,116.524819,10:00-22:00,连锁,有团购,"牛油果羽衣甘蓝芒果, 奇亚籽羽衣甘蓝牛油果燕麦爆珠, 黄金榴莲",果茶
l37ZWtjtVWzVXVGq,CHAGEE霸王茶姬(顺义华联店),https://www.dianping.com/shop/l37ZWtjtVWzVXVGq,4.2,2724,19,4.3,4.2,4.2,茶饮果汁,顺义城区,华联顺义金街购物中心一层内F1-46A霸王茶姬,40.13410233,116.6588882,09:00-22:00,连锁,有团购,"伯牙绝弦, 桂馥兰香, 春日桃桃",其他
k8h74Bf9DMVuiM7o,CHAGEE霸王茶姬(北京大兴龙湖天街店),https://www.dianping.com/shop/k8h74Bf9DMVuiM7o,4.1,447,19,4.1,4.1,4.2,茶饮果汁,龙湖天街购物中心,永兴路7号院1号楼大兴龙湖天街1F-01b,39.69182666,116.3274177,10:00-22:00,连锁,有团购,"山野栀子, 春日桃桃, 【久别重逢】花田乌龙",纯茶
k5L6Lu8ma2PGR5AB,CHAGEE霸王茶姬(顺义国泰生活广场店),https://www.dianping.com/shop/k5L6Lu8ma2PGR5AB,4.2,195,20,4.2,4.2,4.2,茶饮果汁,首都机场,首都机场南平街6号1幢1层30号,40.05102221,116.6025709,08:00-23:00,连锁,有团购,"花田乌龙, 山野栀子, 万山红金丝小种",纯茶
k673cw1Qv39FHpjt,裕莲茶楼(朝阳大悦城店),https://www.dianping.com/shop/k673cw1Qv39FHpjt,3.8,2141,28,3.8,3.8,3.8,茶饮果汁,青年路,朝阳北路101号朝阳大悦城1F-02C,39.930772,116.524819,10:00-22:00,连锁,有团购,"焦糖可颂蛋挞, 特浓茶钻琥珀奶, 版纳溏心桃胶·临沧滇红",奶茶
k6a1uDtwWOulW03D,茉莉奶白(北京熙悦天街店),https://www.dianping.com/shop/k6a1uDtwWOulW03D,4.2,551,19,4.2,4.3,4.2,茶饮果汁,良乡,良乡东路与长于大街交汇处北侧北京熙悦天街B馆B1层,40.17231259,116.6378882,10:00-22:00,连锁,有团购,"茉莉奶白, 一朵茉莉花, 白兰",奶茶
k6a7Oj7P72fEj87P,CHAGEE霸王茶姬(北京龙湖长楹天街购物中心店),https://www.dianping.com/shop/k6a7Oj7P72fEj87P,4.0,1515,20,4.0,4.1,4.1,茶饮果汁,常营,"龙湖长楹天街购物中心东区负一层（靠西边倒数第三家,扶梯下来右手边）",39.930632,116.60668,10:00-22:00,连锁,有团购,"万山红金丝小种, 青青糯山, 山野栀子",其他
k6ayZwktLsMuYPy9,爷爷不泡茶 NOYEYENOTEA(北京房山龙湖天街店),https://www.dianping.com/shop/k6ayZwktLsMuYPy9,4.2,606,16,4.1,4.2,4.2,茶饮果汁,良乡,拱辰北大街龙湖北京房山天街B1-20b号,39.73748984,116.149923,09:30-21:30,连锁,有团购,"荔枝冰酿, 空山栀子, 武汉茉莉",纯茶
k6oMmmltgMggaUSb,蜜雪冰城(人民大学校内店),https://www.dianping.com/shop/k6oMmmltgMggaUSb,3.6,8,8,3.6,3.6,3.6,茶饮果汁,人民大学,海淀街道中关村大街59号(紫藤园学生服务区旁),39.97637733,116.3249348,10:30-20:00,连锁,有团购,"珍珠奶茶, 爽脆魔芋, 蓝莓果粒茶",奶茶
k7KGQXsyT30kvhAd,喜茶(北京密云鼓楼南大街店),https://www.dianping.com/shop/k7KGQXsyT30kvhAd,3.7,247,18,3.7,3.7,3.7,茶饮果汁,密云县县城,鼓楼南大街10号,40.380551,116.852654,10:00-22:00,连锁,有团购,"多肉青提, 椰椰芒芒, 烤黑糖波波牛乳(首创)",奶茶
k7LEaZ7CY3oUZoA5,茉莉奶白(北京BHG Mall 顺义金街店),https://www.dianping.com/shop/k7LEaZ7CY3oUZoA5,4.3,1469,19,4.3,4.3,4.3,茶饮果汁,顺义城区,新顺南大街8号1幢北京华联顺义金街购物中心F1-29,40.13405861,116.6589148,10:00-21:30,连锁,有团购,"茉莉奶白/一朵茉莉花, 粉茉针王/粉茉抹茶, 白兰",纯茶
k7WuhdIULH650QHp,蜜雪冰城(成寿寺店),https://www.dianping.com/shop/k7WuhdIULH650QHp,3.6,56,6,3.7,3.6,3.4,茶饮果汁,十里河,成寿寺路甲108号楼1层105,39.85727812,116.4521949,09:30-22:30,连锁,有团购,"芝士奶盖葡萄, 芝士奶盖四季春, 奥利奥雪王大圣代",奶茶
k7Y6YeIU33dMxCdA,HI MANGO 很芒の芒(远洋乐堤港店),https://www.dianping.com/shop/k7Y6YeIU33dMxCdA,4.3,766,19,4.3,4.3,4.3,茶饮果汁,北关,新华北路与通州北关桥交叉口东北角远洋乐堤港购物中心东区4层,39.92962,116.664512,10:00-22:00,连锁,有团购,"霸道芒果桶, 杨枝甘露, 奶奶灰雪花冰",果茶
k7hKSEPF1NMoJ96F,茶百道(龙玥城店),https://www.dianping.com/shop/k7hKSEPF1NMoJ96F,4.0,181,17,4.0,4.2,4.1,茶饮果汁,亦庄,科创五街38号龙玥城三层E区茶百道ChaPanda,39.808825,116.538986,10:00-22:00,连锁,有团购,"青提茉莉, 草莓奶冻, 抹茶奶布丁",甜品/小吃
k85XeWiSOtItyIlF,蜜雪冰城(管庄地铁口店),https://www.dianping.com/shop/k85XeWiSOtItyIlF,3.1,31,8,3.2,3.2,3.2,茶饮果汁,管庄,双桥东路杨闸路口西侧平房01室,39.966034,116.4133837,10:30-20:00,连锁,有团购,"脆皮大圣代, 奥利奥雪王大圣代, 春日龙井茶",甜品/小吃
k8e7kWHmxT2EwoMT,蜜雪冰城(北京西站店),https://www.dianping.com/shop/k8e7kWHmxT2EwoMT,3.7,78,6,3.7,3.7,3.7,茶饮果汁,北京西站/六里桥,北京西站B1北广场·下沉广场北出入口A,39.90148364,116.3278238,,连锁,有团购,"香芋冰淇淋, 脆皮大圣代, 冰鲜柠檬水",甜品/小吃
k8k0pkyQSWIr3thi,喜茶(北京通州三大馆店),https://www.dianping.com/shop/k8k0pkyQSWIr3thi,3.9,278,18,4.1,4.1,3.9,茶饮果汁,土桥,滨河中路22号D.P.ONE源.心购物中心b1-057喜茶（1号门进入左转20m）,39.943585,116.3047816,10:00-21:00,连锁,有团购,"多肉葡萄(首创), 烤黑糖波波牛乳(首创), 芒芒甘露",奶茶
l37EBq28rTT9WNb2,茶百道(大兴鸿坤永辉店),https://www.dianping.com/shop/l37EBq28rTT9WNb2,3.7,15,15,3.7,3.8,3.7,茶饮果汁,西红门,欣旺北大街8号鸿坤广场B1层C383002号,39.79738183,116.3467959,09:30-21:00,连锁,有团购,"玫瑰葡萄, 葡萄冻冻, 豆乳玉麒麟",其他
k8wLBGpfj5v1wAEI,Uniboba优尼波巴(北京昌平悦荟店),https://www.dianping.com/shop/k8wLBGpfj5v1wAEI,3.9,37,19,3.9,3.9,3.9,茶饮果汁,昌平镇,南环路10号院1号楼5层L5026,40.217847,116.246526,10:00-22:00,连锁,有团购,"抹茶牛乳咸法酪, Boba奶茶黑糖丸, 莉莉蜜桃冰奶",奶茶
k99pI554TI9ppciH,喜茶(北京首都机场T3四层出发店),https://www.dianping.com/shop/k99pI554TI9ppciH,3.8,52,25,3.9,3.8,3.8,茶饮果汁,首都机场,北京首都机场T3公共区四层A4E7,40.05359774,116.5983095,08:00-22:00,连锁,有团购,"椰椰芒芒, 烤黑糖波波真乳茶, 多肉葡萄(首创)",奶茶
k9WPglOODjPpJ3jK,CHAGEE霸王茶姬(北京六工汇购物广场店),https://www.dianping.com/shop/k9WPglOODjPpJ3jK,4.2,389,21,4.2,4.2,4.1,茶饮果汁,石景山区,群明湖大街与群明湖北路交叉口西北角D1-1-16,39.930884,116.159285,10:00-22:00,连锁,有团购,"山野栀子, 【久别重逢】花田乌龙+春日桃桃, 【久别重逢】花田乌龙",纯茶
k9WaEcgPCK5sQ7Fi,KOI PLUS(颐堤港店),https://www.dianping.com/shop/k9WaEcgPCK5sQ7Fi,4.0,1020,28,4.0,4.1,4.1,茶饮果汁,酒仙桥,酒仙桥路18号颐堤港LG-12B（将台站C口）,39.97504453,116.4977845,10:00-22:00,连锁,有团购,"伯爵饼干奶茶（原创）, 伯爵黄金珍奶, 伯爵波霸奶茶",奶茶
k2Xtx9u2HdwwOcpV,脸红秦田田,https://www.dianping.com/shop/k9f9yGbtbZHXLWXb,3.8,71,14,3.8,3.8,3.8,茶饮果汁,常营,"长楹天街西区B1层-08号（近朝阳北路,近常营地铁站）",39.93419394,116.5996393,10:00-22:00,非连锁,有团购,"柴门芭乐, 玫田蓝莓, 西陆百香果",果茶
kaFx5E9xWzFgmsUk,茉莉奶白(北京西北旺万象汇店),https://www.dianping.com/shop/kaFx5E9xWzFgmsUk,4.2,962,19,4.2,4.2,4.2,茶饮果汁,西北旺,德政路16号院西北旺万象汇8号楼B1层下沉广场,40.04970918,116.2743574,09:00-21:30,连锁,有团购,"茉莉奶白/一朵茉莉花, 粉茉针王/粉茉抹茶, 白兰",纯茶
kav4Cy9GWGY3lWyU,CHAGEE霸王茶姬(北京亦庄大族广场店),https://www.dianping.com/shop/kav4Cy9GWGY3lWyU,4.2,1263,19,4.3,4.2,4.2,茶饮果汁,亦庄,荣华南路2号大族广场F1-06,39.930772,116.520416,08:00-22:00,连锁,有团购,"【久别重逢】花田乌龙, 山野栀子, 【久别重逢】花田乌龙+春日桃桃（赠徽章）",纯茶
l1PVekrgLIWEBeBY,CHAGEE霸王茶姬(延庆环球新意广场店),https://www.dianping.com/shop/l1PVekrgLIWEBeBY,3.9,688,19,3.9,3.9,3.9,茶饮果汁,延庆城区,妫水北街环球新意104A号1065A号,39.930632,115.982262,09:00-21:30,连锁,有团购,"山野栀子, 花田乌龙, 春日桃桃",纯茶
k2Xtx9u2HdwwOcpV,蜜雪冰城(壹号最美食堂店),https://www.dianping.com/shop/l1UIwSAnYjdNhUZZ,3.5,11,8,3.5,3.5,3.5,茶饮果汁,西北旺,中关村壹号最美食堂,39.9838769,116.3249565,10:30-20:00,连锁,有团购,"爽脆魔芋, 蓝莓果粒酸奶, 蓝莓果粒茶",果茶
l1l2mD03XyWhSi7V,煮叶(王府井APM店),https://www.dianping.com/shop/l1l2mD03XyWhSi7V,4.0,5395,26,4.0,4.0,4.0,茶饮果汁,王府井/东单,王府井大街138号北京apmB区B1层107,39.92064055,116.4182618,10:00-21:30,连锁,有团购,"冰摇荔枝乌龙茶, 一颗青梅桂花弄, 玫瑰荔枝煮乌龙",果茶
l1ysyfK8PjYGL69W,奈雪的茶(中粮祥云小镇店),https://www.dianping.com/shop/l1ysyfK8PjYGL69W,4.2,1925,22,4.2,4.3,4.2,茶饮果汁,顺义区,安泰大街6号院10号楼1层105（哈根达斯隔壁）,39.86053124,116.373904,09:00-22:00,连锁,有团购,"霸气芝士草莓, 草莓魔法棒, 多料椰椰杨枝甘露宝藏茶",果茶
l2Sh3KDvb3el8LuZ,蜜雪冰城(丰科万达店),https://www.dianping.com/shop/l2Sh3KDvb3el8LuZ,3.6,65,5,3.6,3.7,3.6,茶饮果汁,世界公园,丰科路6号院1号楼7幢-1层B1010B,39.92962,116.4133837,09:30-21:30,连锁,有团购,"香芋冰淇淋, 脆皮大圣代, 奥利奥雪王大圣代",甜品/小吃
l2cmrya9A2wTWJfB,爷爷不泡茶 NOYEYENOTEA(北京柒栖谷店),https://www.dianping.com/shop/l2cmrya9A2wTWJfB,4.3,281,17,4.3,4.4,4.4,茶饮果汁,苹果园,学院路乙9号院1号楼1层103号,40.00543,116.35875,10:00-21:30,连锁,有团购,"荔枝冰酿, 空山栀子, 咸宁桂花",其他
l2e8VEEFSGQ3xgQu,树夏(大兴凯德店),https://www.dianping.com/shop/l2e8VEEFSGQ3xgQu,4.3,532,22,4.3,4.4,4.3,茶饮果汁,大兴区,北臧村镇华佗路凯德MALL(大兴店)01-02B,39.67943264,116.3086911,10:00-21:30,连锁,有团购,"牛油果羽衣甘蓝芒果, 黄金榴莲, 奇亚籽羽衣甘蓝牛油果燕麦爆珠",果茶
H5FNwuXtdvCHLtDh,蜜雪冰城(通州万象汇店),https://www.dianping.com/shop/H5FNwuXtdvCHLtDh,3.9,47,4,3.9,3.9,3.9,茶饮果汁,通州区,运河东大街51号通州万象汇地下2层家家悦超市B206-2,39.90339339,116.6694045,09:30-21:30,连锁,有团购,"香芋冰淇淋, 奥利奥雪王大圣代, 脆皮大圣代",甜品/小吃
layy6Xv6e3OrhPXv,蜜雪冰城(中国石油大学亢山路店),https://www.dianping.com/shop/layy6Xv6e3OrhPXv,3.3,6,8,3.3,3.3,3.3,茶饮果汁,昌平镇,东关南里商场1层,39.921052,116.254402,09:30-21:30,连锁,有团购,"葡萄冰美式, 椰椰拿铁, 脆皮大圣代",甜品/小吃
H52bz7EveiYtv58I,茉莉奶白(北京望京万象汇店),https://www.dianping.com/shop/H52bz7EveiYtv58I,4.3,510,19,4.3,4.3,4.3,茶饮果汁,望京,广顺北大街16号望京万象汇B1-BD105号,40.01670403,116.4752884,10:00-21:30,连锁,有团购,"茉莉奶白轻乳茶, 栀子奶白, 茉莉奶白",奶茶
H1joq9Pr8kvKYsCG,蜜雪冰城(俸伯店),https://www.dianping.com/shop/H1joq9Pr8kvKYsCG,3.6,12,8,3.7,3.7,3.6,茶饮果汁,南彩镇,南彩镇后俸伯村光明街三条28号,40.14319985,116.7109896,10:30-20:00,连锁,有团购,"蓝莓果粒茶, 蓝莓果粒酸奶, 四季春轻乳茶",果茶
G6P7AaXGsE31I6bV,KOI PLUS(芳圆里ID Mall店),https://www.dianping.com/shop/G6P7AaXGsE31I6bV,4.1,970,27,4.0,4.2,4.1,茶饮果汁,九龙山,东四环中路189号L1,39.896014,116.494453,10:00-22:00,连锁,有团购,"伯爵饼干奶茶（原创）, 伯爵黄金珍奶, 伯爵波霸奶茶",奶茶
G6RZP5lbH7JyCgKd,宝珠奶酪(首开通州万象汇店),https://www.dianping.com/shop/G6RZP5lbH7JyCgKd,3.9,422,22,3.9,3.9,3.9,茶饮果汁,通州区,运河东大街51号通州万象汇B102铺,39.90339339,116.6694045,10:00-22:00,连锁,有团购,"酒酿桂花酪, 珍珠芭乐草莓酪, 岩间茉莉酸奶昔",奶茶
G6SGoWPt2DBatm68,CHAGEE霸王茶姬(北京星悦广场店),https://www.dianping.com/shop/G6SGoWPt2DBatm68,4.2,400,20,4.2,4.2,4.2,茶饮果汁,常营,三间房东路四号（黄渠地铁站D西南口步行170米）,39.93261204,116.5746484,10:00-22:00,连锁,有团购,"伯牙绝弦, 春日桃桃, 晴山栖谷",其他
G6ZOOPAezG0u7bD5,CHAGEE霸王茶姬(北京通州万象汇店),https://www.dianping.com/shop/G6ZOOPAezG0u7bD5,4.2,535,20,4.2,4.2,4.1,茶饮果汁,通州区,地铁6号线东夏园站北侧(东夏园地铁站B东北口步行110米)通州万象汇B131,39.90893621,116.754009,10:00-22:00,连锁,有团购,"花田乌龙, 山野栀子, 万山红金丝小种",纯茶
G6oJBGRACf0Z04Mr,喜茶(北京顺义机场国泰店),https://www.dianping.com/shop/G6oJBGRACf0Z04Mr,4.1,316,19,4.1,4.1,4.1,茶饮果汁,首都机场,首都机场南平街甲1号国泰生活广场一层9-1,40.05430658,116.5982951,09:00-21:00,连锁,有团购,"多肉葡萄(首创), 烤黑糖波波牛乳(首创), 芒芒甘露(首创)",奶茶
G77KqZaRK2j0hnok,LELECHA乐乐茶(北京平谷万达广场店),https://www.dianping.com/shop/G77KqZaRK2j0hnok,3.8,176,16,3.8,3.8,3.8,茶饮果汁,平谷城区,谷丰东路万达广场B1层B1030A室,39.91207909,116.231898,10:00-22:00,连锁,有团购,"焦糖香蕉烤布蕾, 芒果生打椰, 甜心车厘子",奶茶
k2Xtx9u2HdwwOcpV,LINLEE林里·手打柠檬茶(通州万象汇店),https://www.dianping.com/shop/G7UE1ZaI7Iml56yI,3.9,570,19,4.0,4.1,4.0,茶饮果汁,通州区,万象汇B1层122号,39.94725108,116.522607,10:00-22:00,连锁,有团购,"招牌手打柠檬茶, 白葡萄冰柠茶, 抹茶椰青水",果茶
G7pu99K13CrkZ0aX,CHAGEE霸王茶姬(北京西单大悦城店),https://www.dianping.com/shop/G7pu99K13CrkZ0aX,3.9,861,18,4.1,4.2,4.0,茶饮果汁,西单,西单北大街131号2F-49A,39.915981,116.379577,10:00-22:00,连锁,有团购,"伯牙绝弦, 花田乌龙, 桂馥兰香",纯茶
G7sMQMvCSPTYzkUL,LELECHA乐乐茶(东坝万达广场店),https://www.dianping.com/shop/G7sMQMvCSPTYzkUL,4.2,599,20,4.3,4.2,4.2,茶饮果汁,东坝,东坝中路25号东坝万达广场1层1029铺,39.96790487,116.5540754,10:00-22:00,连锁,有团购,"草莓桃子酪酪, 黑糖波霸脏脏茶（牛乳）, 芒果生打椰",奶茶
G8Da6nkyI65QFA4A,喜茶(北京喜隆多店),https://www.dianping.com/shop/G8Da6nkyI65QFA4A,4.0,1837,21,4.0,4.0,4.0,茶饮果汁,苹果园,阜石路300号一层118号,39.929401,116.178163,10:00-22:00,连锁,有团购,"多肉葡萄（首创）, 满杯红柚(首创), 多肉葡萄(首创)",果茶
G8JfJvgTle9BDiit,喜茶(北京中粮祥云小镇店),https://www.dianping.com/shop/G8JfJvgTle9BDiit,4.0,1063,21,4.1,4.0,4.0,茶饮果汁,顺义区,安泰大街6号院中粮祥云小镇南区3号楼104室,40.09581645,116.5429335,10:00-21:30,连锁,有团购,"轻芝莓莓, 多肉葡萄(首创), 烤黑糖波波牛乳(首创)",奶茶
G8KLuZMZjNqshpQe,茶百道(怀柔万达店),https://www.dianping.com/shop/G8KLuZMZjNqshpQe,3.9,761,17,3.9,3.9,3.8,茶饮果汁,怀柔城区,府前西街1号院1号楼青春万达广场(怀柔店)5层5018,40.32309504,116.636247,10:00-22:00,连锁,有团购,"杨枝甘露, 豆乳玉麒麟, 西瓜啵啵",其他
G8YZ5U2MxhrXnJ8e,THE MATCHA TOKYO今抹京茶(北京首店),https://www.dianping.com/shop/G8YZ5U2MxhrXnJ8e,4.0,2934,36,4.1,4.0,4.0,茶饮果汁,国贸/建外,国贸商城北区地下二层3B2-2（Ole超市门口）,39.91821436,116.4654809,10:00-21:30,连锁,有团购,"抹茶拿铁, 抹茶软冰淇淋, 椰子杯装冰淇淋",甜品/小吃
k2Xtx9u2HdwwOcpV,蜜雪冰城(榆垡店),https://www.dianping.com/shop/G8wgdvw0IF09tUP8,3.7,25,11,3.7,3.7,3.7,茶饮果汁,空港社区,榆垡镇康泰街26号院1号楼一层136,39.52004162,116.3070178,10:30-20:00,连锁,有团购,"香芋冰淇淋, 蓝莓果粒酸奶, 蓝莓果粒茶",果茶
G9HVlWIrnYJrFFKb,蜜雪冰城(万科广场店),https://www.dianping.com/shop/G9HVlWIrnYJrFFKb,3.9,51,5,3.9,3.9,3.9,茶饮果汁,旧宫,北京经济技术开发区(大兴)忠凉路1号院1号楼-1层101-B1017C,39.81130466,116.4658469,09:30-21:30,连锁,有团购,"香芋冰淇淋, 脆皮大圣代, 东方乌龙轻乳茶",甜品/小吃
G9aF7UJGoDUrGvdE,茉莉奶白(北京昌平超极合生汇店),https://www.dianping.com/shop/G9aF7UJGoDUrGvdE,3.8,929,19,3.8,3.8,3.8,茶饮果汁,回龙观,永旺商城东路超级合生汇负1层185号商铺（巴黎贝甜隔壁）,40.10261109,116.295375,10:00-22:00,连锁,有团购,"茉莉奶白, 茉莉奶白/一朵茉莉花, 粉茉针王",奶茶
G9mtnhxtbwYIjks1,蜜雪冰城(小汤山店),https://www.dianping.com/shop/G9mtnhxtbwYIjks1,3.8,25,9,3.7,3.7,3.8,茶饮果汁,小汤山镇,小汤山镇大柳树村187地上一层1516-F1-B002,40.18433303,116.4107651,10:30-20:00,连锁,有团购,"香芋脆皮小圣代, 蜜桃四季春, 蓝莓果粒酸奶",风味牛奶
G9vOIDg6uVJBZ2bi,CoCo都可(鼓楼大街店),https://www.dianping.com/shop/G9vOIDg6uVJBZ2bi,3.5,114,11,3.5,3.4,3.4,茶饮果汁,安定门,旧鼓楼外大街56号(近鼓楼地铁站),40.1895022,116.2701598,08:30-21:30,连锁,有团购,"珍珠奶茶, 奶茶三兄弟, 鲜百香双响炮",奶茶
Ga66IC1eXdZfrntU,CHAGEE霸王茶姬(北京瀛海环宇坊店),https://www.dianping.com/shop/Ga66IC1eXdZfrntU,4.2,613,20,4.2,4.1,4.2,茶饮果汁,大兴区,瀛海环宇坊1层霸王茶姬,39.76642573,116.455598,10:00-22:00,连锁,有团购,"春日桃桃, 山野栀子, 七里香",其他
GaD9NyYpJQPbQ75j,CHAGEE霸王茶姬(平谷万达店),https://www.dianping.com/shop/GaD9NyYpJQPbQ75j,3.7,162,18,3.7,3.7,3.7,茶饮果汁,平谷城区,渔阳地区平谷大街与平翔路交汇处西北侧,39.958271,116.426215,10:00-22:00,连锁,有团购,"山野栀子, 春日桃桃, 花田乌龙",纯茶
GaPXeERGv7wNnDEB,喜茶(北京平谷万达店),https://www.dianping.com/shop/GaPXeERGv7wNnDEB,3.6,179,18,3.6,3.7,3.6,茶饮果汁,平谷城区,谷丰东路14号院万达广场1层1077A室,39.91207909,116.231898,10:00-22:00,连锁,有团购,"椰椰芒芒, 烤黑糖波波真乳茶, 芒芒甘露",奶茶
GaYEVdWkiXr9aOPn,茉莉奶白(北京昌平悦荟广场店),https://www.dianping.com/shop/GaYEVdWkiXr9aOPn,4.3,539,18,4.3,4.3,4.2,茶饮果汁,昌平镇,南环路10号北京悦荟广场3层L3051A号铺,40.21816479,116.2456895,10:00-22:00,连锁,有团购,"茉莉奶白, 一朵茉莉花, 白兰",奶茶
GaYXKzrohoef2Ofr,隆延茶铺·正统奶茶(东直门来福士店),https://www.dianping.com/shop/GaYXKzrohoef2Ofr,3.8,2653,20,3.8,3.9,3.9,茶饮果汁,东直门,东直门南大街来福士地下一层肯德基隔壁,39.94641389,116.4394452,10:00-21:30,连锁,有团购,"隆记米酿奶茶, 山谷黄杏清茶, 松风乌龙奶茶",奶茶
GakhVcoOXiy9d4UM,CHAGEE霸王茶姬(海淀大悦城店),https://www.dianping.com/shop/GakhVcoOXiy9d4UM,4.1,519,18,4.2,4.2,4.2,茶饮果汁,西北旺,大牛坊社区四区西北B1-05-2,40.09043704,116.2406369,10:00-22:00,连锁,有团购,"伯牙绝弦, 万里木兰, 春日桃桃",其他
k2Xtx9u2HdwwOcpV,茉莉奶白(北京蓝色港湾店),https://www.dianping.com/shop/GalU9tmp6akwYF0u,4.0,963,20,4.1,4.1,4.0,茶饮果汁,蓝色港湾,公园路6号SOLANA蓝色港湾MALLL2M229,39.95469152,116.4832068,10:00-22:00,连锁,有团购,"茉莉奶白, 白兰, 栀子奶白",奶茶
G6CDv3LRRksPeXR8,蜜雪冰城(角门西美廉美店),https://www.dianping.com/shop/G6CDv3LRRksPeXR8,3.6,45,5,3.7,3.6,3.6,茶饮果汁,马家堡/角门,马家堡西路15号1层F1-B008-1,39.796794,116.336447,09:00-22:00,连锁,有团购,"草莓摇摇奶昔, 奥利奥雪王大圣代, 香芋冰淇淋",甜品/小吃
G5xoxZ71PII785dh,煮叶(朝阳大悦城店),https://www.dianping.com/shop/G5xoxZ71PII785dh,4.0,1555,27,4.0,4.1,3.9,茶饮果汁,青年路,朝阳北路朝阳大悦城3层33A号（muji对面）,39.913366,116.3047816,08:30-21:30,连锁,有团购,"冰摇荔枝乌龙茶, 一颗青梅桂花弄, 青提桂花煮乌龙",果茶
G5ksg9oIE4UNSKC3,隆延茶铺·正统奶茶(大望路SKP-S店),https://www.dianping.com/shop/G5ksg9oIE4UNSKC3,4.1,2433,20,4.0,4.1,4.1,茶饮果汁,大望路,建国路86号SKP-S商场B1层,39.91306827,116.485436,10:30-21:30,连锁,有团购,"米酿奶茶, 松风乌龙奶茶, 山谷黄杏清茶",奶茶
k2Xtx9u2HdwwOcpV,爷爷不泡茶 NOYEYENOTEA(北京翠微印象城店),https://www.dianping.com/shop/G2RF2AfWkhWUwDod,4.2,154,18,4.1,4.1,4.2,茶饮果汁,公主坟/万寿路,北京海淀印象城翠微路12号地下一层B1-44B,39.91842582,116.3098396,10:00-22:00,连锁,有团购,"荔枝冰酿, 初恋玫瑰青提, 咸宁桂花",其他
EaBnCPmzsoGinTfl,喜茶(北京大兴机场店),https://www.dianping.com/shop/EaBnCPmzsoGinTfl,4.2,791,19,4.3,4.2,4.2,茶饮果汁,大兴区,大兴机场高速大兴机场航站楼D指廊D60登机口旁（隔离区内）,39.55711806,116.3847089,06:00-22:00,连锁,有团购,"多肉葡萄（首创）, 多肉青提, 芒芒甘露(首创)",果茶
Eil0P2WZwNxRSV7C,爷爷不泡茶 NOYEYENOTEA(北京回龙观华联店),https://www.dianping.com/shop/Eil0P2WZwNxRSV7C,4.5,246,17,4.4,4.4,4.4,茶饮果汁,回龙观,华联回龙观购物中心一层F1-39单位,40.08660352,116.3217035,10:00-21:30,非连锁,无团购,"荔枝冰酿, 空山栀子, 初恋玫瑰青提",其他
Eiqq0rExzyUqOBkc,CHAGEE霸王茶姬(北京新奥购物中心店),https://www.dianping.com/shop/Eiqq0rExzyUqOBkc,4.2,395,17,4.1,4.2,4.1,茶饮果汁,鸟巢/水立方,湖景东路新奥购物中心H区负一层（近东B门）,40.00656,116.4029042,09:30-21:30,连锁,有团购,"伯牙绝弦, 花田乌龙, 桂馥兰香",纯茶
EoXpRoQlEwydxxM9,茶百道(密云万象汇店),https://www.dianping.com/shop/EoXpRoQlEwydxxM9,3.7,378,16,3.7,3.7,3.7,茶饮果汁,密云县县城,滨河路178号华润万象汇3层L338,39.94725108,116.522607,09:30-21:00,连锁,有团购,"西瓜啵啵, 超级杯水果茶装, 芒芒生打椰",纯茶
EtUTzs4iYwkZUpfH,CHAGEE霸王茶姬(光耀东方广场店),https://www.dianping.com/shop/EtUTzs4iYwkZUpfH,4.0,344,18,4.1,4.2,4.0,茶饮果汁,军事博物馆,羊坊店路18号捌食捌街F1-01,39.911206,116.32836,08:00-24:00,连锁,有团购,"伯牙绝弦, 桂馥兰香, 山野栀子",其他
EvRKEdq9psmIGNGZ,邓氏阿嬷手作(三里屯店),https://www.dianping.com/shop/EvRKEdq9psmIGNGZ,3.9,499,22,4.0,3.9,3.9,茶饮果汁,三里屯/工体,三里屯一号场T+MALL（B1-K03）,39.94326189,116.453636,10:00-21:00,连锁,有团购,"手打米麻薯, 老椰清补凉, 斯里兰卡奶茶",奶茶
FL7tVyj5fBoLJegF,沪上阿姨·精选茶饮(北京北苑龙湖天街店),https://www.dianping.com/shop/FL7tVyj5fBoLJegF,3.4,13,15,3.5,3.5,3.5,茶饮果汁,北苑家园,北苑东路19号院8号楼1至6层101内5层B馆-5F-02号,40.047427,116.447029,10:00-22:00,连锁,有团购,"血糯米奶茶, 粉心芭乐桃, 仙仙玫瑰青提",奶茶
FY4E1dPRFzUj5amI,cococean椰子水(国贸商城店),https://www.dianping.com/shop/FY4E1dPRFzUj5amI,4.3,940,30,4.3,4.3,4.3,茶饮果汁,国贸/建外,建国门外大街1号国贸商城北区5层NL5007号,39.91821436,116.4654809,09:00-22:00,连锁,有团购,"椰子三兄弟, 零负担椰奶, 椰子脆片",奶茶
FbYSy5rm5SehnMdQ,LINLEE林里·手打柠檬茶(石景山六工汇店),https://www.dianping.com/shop/FbYSy5rm5SehnMdQ,4.4,441,19,4.4,4.3,4.4,茶饮果汁,石景山区,五一剧场南路2号院1号楼(六工汇购物广场)2层LINLEE手打柠檬茶,39.92410236,116.1625425,10:00-21:30,连锁,有团购,"招牌手打柠檬茶, 热五窨茉莉手打柠檬茶, 香柠椰青水",果茶
FyBFwBrIc20SSqQY,LINLEE林里·手打柠檬茶(密云万象汇店),https://www.dianping.com/shop/FyBFwBrIc20SSqQY,3.7,408,20,3.7,3.7,3.7,茶饮果汁,密云县县城,鼓楼街道滨河路178号院2号楼-2层F581等[716]套(-1至4层101四层L424),40.385058,116.849259,10:00-21:30,连锁,有团购,"特浓手打柠檬茶, 山茶花手打柠檬茶, 满杯凤梨冰柠茶",果茶
G1eQtwViRX55KeYg,7分甜(西红门荟聚店),https://www.dianping.com/shop/G1eQtwViRX55KeYg,4.0,1747,17,4.0,4.1,4.1,茶饮果汁,西红门,欣宁街北京荟聚购物中心03F10B（食通天美食城对面）,39.79492962,116.3316256,10:00-21:30,连锁,有团购,"Mini杨枝甘露, 芒椰小丸子, 霸7水果茶",纯茶
G2TOzocz5BRzF3cZ,7分甜(首都国际机场店),https://www.dianping.com/shop/G2TOzocz5BRzF3cZ,4.1,92,20,4.0,4.1,4.2,茶饮果汁,首都机场,仁和地区北京首都国际机场三号航站楼A4W1(首都机场内),40.08381244,116.6095636,05:30-21:00,连锁,有团购,"杨枝甘露, 招牌爆柠茶, 霸7水果茶",纯茶
G5V4xyIvMHqmZy21,喜茶(北京龙湖长安天街店),https://www.dianping.com/shop/G5V4xyIvMHqmZy21,3.6,795,21,3.6,3.6,3.6,茶饮果汁,门头沟城区,新城东街17号院2号楼龙湖北京长安天街商场A馆一层-14号房屋,39.91165605,116.129218,10:00-22:00,连锁,有团购,"多肉葡萄(首创), 轻芝莓莓, 烤黑糖波波牛乳(首创)",奶茶
G2hyLUUT6rwABcOZ,蜜雪冰城(龙湖天街旗舰店),https://www.dianping.com/shop/G2hyLUUT6rwABcOZ,3.8,96,6,3.8,3.8,3.7,茶饮果汁,龙湖天街购物中心,永兴路7号院1号楼B1-59,39.690815,116.325814,10:30-22:00,连锁,有团购,"山楂莓莓, 香芋冰淇淋, 草莓啵啵",甜品/小吃
G3RVhmrOuUOdWUIt,邓氏阿嬷手作(五棵松万达店),https://www.dianping.com/shop/G3RVhmrOuUOdWUIt,4.0,762,19,4.1,4.0,4.1,茶饮果汁,五棵松,复兴路69号3号楼-LG层-103,40.385057,116.837173,10:00-22:00,连锁,有团购,"打米麻薯, 斯里兰卡奶茶, 老椰清补凉",奶茶
G3t4irpT2AgHMjoS,茉莉奶白(北京新中关店),https://www.dianping.com/shop/G3t4irpT2AgHMjoS,3.9,2922,19,4.0,4.0,4.0,茶饮果汁,中关村,中关村大街19号新中关购物中心地下M层M11号铺,39.90061101,116.2396997,10:00-22:00,连锁,有团购,"茉莉奶白/一朵茉莉花, 粉茉针王/粉茉抹茶, 茉莉奶白",奶茶
G4IUklWFmqNNfSUx,蜜雪冰城(上品店),https://www.dianping.com/shop/G4IUklWFmqNNfSUx,3.5,2,8,3.5,3.5,3.5,茶饮果汁,石园,燕京街32号院1号楼B01-1004,39.901295,116.685506,09:30-21:30,连锁,有团购,"草莓摇摇奶昔, 奥利奥雪王大圣代, 椰椰拿铁",风味牛奶
k2Xtx9u2HdwwOcpV,茉莉奶白(北京龙湖长楹天街店),https://www.dianping.com/shop/G4PrKaTgviuIRNMp,3.9,807,20,3.9,4.0,3.9,茶饮果汁,常营,朝阳北路长楹天街购物中心西区B1层17号商铺（比格披萨旁边）,39.93082649,116.6060742,09:00-22:00,连锁,有团购,"茉莉奶白, 一朵茉莉花, 白兰",奶茶
G4TlOkroc23dLdPG,茉莉奶白(北京朝阳合生汇店),https://www.dianping.com/shop/G4TlOkroc23dLdPG,3.9,4273,20,3.9,4.0,3.9,茶饮果汁,大望路,西大望路21号合生汇西区负一楼,39.89988132,116.4859291,10:00-22:00,连锁,有团购,"茉莉奶白/一朵茉莉花, 粉茉针王/粉茉抹茶, 栀子奶白/一朵栀子花",奶茶
G4Tn97txnJvbPwj6,喜茶(北京瀛海环宇坊店),https://www.dianping.com/shop/G4Tn97txnJvbPwj6,4.2,582,19,4.2,4.2,4.2,茶饮果汁,大兴区,京福路与瀛安路交汇处南环宇坊一楼L127号,40.04154045,116.6403948,10:00-21:30,连锁,有团购,"多肉葡萄(首创), 烤黑糖波波牛乳茶, 超多肉芒芒甘露",果茶
G4bmBAggfGbvkhXM,CoCo都可(温都水城店),https://www.dianping.com/shop/G4bmBAggfGbvkhXM,4.3,128,12,4.3,4.2,4.3,茶饮果汁,回龙观,北七家镇宏福大道西楼B-3,40.11189461,116.3794061,10:00-21:30,连锁,有团购,"清香茉莉绿, 奶茶吨吨桶超, 瀑布黑糖珍珠牛乳茶",奶茶
G4svxZl1WwxzVS4j,CHAGEE霸王茶姬(北京次渠信创园店),https://www.dianping.com/shop/G4svxZl1WwxzVS4j,4.2,250,18,4.2,4.3,4.2,茶饮果汁,次渠,经济技术开发区科谷一街10号院5号楼1层101-1室,40.669387,116.690421,08:00-23:00,连锁,有团购,"花田乌龙, 山野栀子, 玫瑰花园",纯茶
G5PObih43OVmqgdF,煮叶(蓝色港湾店),https://www.dianping.com/shop/G5PObih43OVmqgdF,4.2,1166,29,4.2,4.3,4.2,茶饮果汁,蓝色港湾,朝阳公园路SOLANA蓝色港湾MALL2层M240（外婆家餐厅隔壁）,39.95469152,116.4832068,10:00-22:00,连锁,有团购,"荔枝桂花乌龙, 一颗青梅桂花弄, 咸普洱牛乳茶",纯茶
H10BVwwGKyNbwPAD,沪上阿姨·精选茶饮(北京角门东物美店),https://www.dianping.com/shop/H10BVwwGKyNbwPAD,3.6,36,14,3.7,3.7,3.7,茶饮果汁,洋桥/木樨园,大红门西路19号一层1797-F1-A010-2,39.900787,116.4723,09:00-23:00,连锁,有团购,"芭乐树番茄发光瓶, 百香果三重奏, 杨梅爆多肉",果茶
G7FpVhfHGksvutPu,CHAGEE霸王茶姬(王府井奥莱香江小镇店),https://www.dianping.com/shop/G7FpVhfHGksvutPu,3.9,110,18,3.9,3.9,4.0,茶饮果汁,马泉营,崔各庄乡王府井奥莱香江小镇1-046D,40.04787583,116.5021992,10:00-22:00,连锁,有团购,"花田乌龙, 山野栀子",纯茶
H3I64BCVJziBnNIH,喜茶(北京大兴龙湖亦庄天街店),https://www.dianping.com/shop/H3I64BCVJziBnNIH,3.7,612,19,3.8,3.8,3.7,茶饮果汁,亦庄龙湖天街,兴海路龙湖北京亦庄天街B1层10号,39.75862585,116.4951885,10:00-22:00,连锁,有团购,"多肉葡萄（首创）, 椰椰芒芒, 超多肉芒芒甘露",果茶
H4nNGd9FU3Dp4DLo,五二兰柠檬茶(大族广场店),https://www.dianping.com/shop/H4nNGd9FU3Dp4DLo,4.2,366,20,4.1,4.2,4.1,茶饮果汁,亦庄,荣华南路大族广场T2二层,39.797548,116.520416,10:00-22:00,连锁,有团购,"原味蛋仔, 粉红芭乐柠檬茶, 阳光青提柠檬茶",果茶
H2TLNUXnDCkCzQfp,茉九茶(宋庄店),https://www.dianping.com/shop/H2TLNUXnDCkCzQfp,3.7,92,15,3.7,3.7,3.8,茶饮果汁,宋庄,小堡西街176号,39.956688,116.722189,10:00-23:00,连锁,有团购,"杨枝甘露, 红豆双皮奶奶茶, 双皮奶奶茶",奶茶
H2NlILNOYLiaLa5t,蜜雪冰城(荣京西街店),https://www.dianping.com/shop/H2NlILNOYLiaLa5t,3.5,24,8,3.5,3.5,3.6,茶饮果汁,亦庄,北京经济技术开发区地盛北街1号院40号楼地下一层119-5,39.78986741,116.5061663,10:30-21:30,连锁,有团购,"春日龙井茶, 香柠百香果, 草莓摇摇奶昔",果茶
H4QaNNwcmw7JRqSJ,隆延茶铺·正统奶茶(望京凯德MALL店),https://www.dianping.com/shop/H4QaNNwcmw7JRqSJ,4.1,475,19,4.0,4.0,4.1,茶饮果汁,望京,广顺北大街33号望京凯德茂b1层,39.98957921,116.4878528,10:00-21:30,连锁,有团购,"隆记米酿奶茶, 山谷黄杏果茶, 松风乌龙奶茶",奶茶
H3o1VeKB1zLSRP1Q,两只椰子COCO2NUTS(北京荟聚店),https://www.dianping.com/shop/H3o1VeKB1zLSRP1Q,4.0,3809,21,4.0,4.0,4.0,茶饮果汁,西红门,西红门地区西红门欣宁街15号楼一号院荟聚购物中心三层03D81B（宜家家居出口对面）,39.7953637,116.334488,10:00-22:00,连锁,有团购,"椰肉椰青, 马蹄椰青, 椰奶椰子冻碗",奶茶
k2Xtx9u2HdwwOcpV,茶百道(北京建外soho店),https://www.dianping.com/shop/H26a2UiOfTVoZ7S6,3.8,31,14,3.8,3.8,3.8,茶饮果汁,国贸/建外,建外SOHO东区3号楼一层0334C,39.91092455,116.4133837,10:00-23:30,连锁,有团购,"玫瑰葡萄, 金萱乌龙, 鲜紫苏多肉葡萄",果茶
H3PYwDY6cwTAhFM1,CoCo都可(日坛国际店),https://www.dianping.com/shop/H3PYwDY6cwTAhFM1,3.7,137,14,3.7,3.7,3.7,茶饮果汁,朝外大街,日坛北路17号院2号楼B1层122B1010室,39.95847,116.363253,09:00-22:00,连锁,有团购,"焦糖奶茶（+布丁）, 莓莓酸奶, 奶霜莓莓果茶",奶茶
H2iSDjPiKRBmXbhu,蜜雪冰城(（北京航空航天大学店）),https://www.dianping.com/shop/H2iSDjPiKRBmXbhu,3.5,6,8,3.5,3.5,3.5,茶饮果汁,沙河,沙河高教园南三街9号北京航空航天大学沙河校区8号楼B109B/C,39.911368,116.465983,09:00-24:00,连锁,有团购,"脆皮大圣代, 蓝莓果粒茶, 椰椰拿铁",果茶
H1xcxd7ReRi6BzXW,LELECHA乐乐茶(朝阳大悦城店),https://www.dianping.com/shop/H1xcxd7ReRi6BzXW,4.0,1690,20,4.0,4.1,4.0,茶饮果汁,青年路,朝阳北路101号朝阳大悦城购物中心5F-30号商铺（14号或15号门进门滚梯五楼正对位）,39.92899,116.524966,10:00-22:00,连锁,有团购,"六十茉莉牛乳茶, 黑糖波霸脏脏茶（牛乳）, 草莓桃子酪酪",奶茶
H3xNuHNaJBZpeCEa,茉莉奶白(石景山万达店),https://www.dianping.com/shop/H3xNuHNaJBZpeCEa,4.2,518,19,4.2,4.2,4.2,茶饮果汁,鲁谷,石景山路乙18号院3号楼3F-351,39.911245,116.232746,10:00-22:00,连锁,有团购,"茉莉奶白, 一朵茉莉花, 白兰",奶茶
H2kpy7mmHFHPvQlE,蜜雪冰城(苏三路店),https://www.dianping.com/shop/H2kpy7mmHFHPvQlE,3.6,15,8,3.6,3.6,3.6,茶饮果汁,海淀区,苏家坨地区中心区A地块商业配套楼一层(前沙涧小区),40.115721,116.154436,09:30-21:30,连锁,有团购,"雪王大圣代, 草莓椰奶露, 草莓摇摇奶昔",奶茶
H3X6SdDOv3uJGbnw,蜜雪冰城(采育店),https://www.dianping.com/shop/H3X6SdDOv3uJGbnw,3.3,8,8,3.4,3.4,3.2,茶饮果汁,大兴区,采育镇育林街5号-11,39.6656994,116.6459586,10:30-20:00,连锁,有团购,"葡萄冰美式, 椰椰拿铁, 草莓摇摇奶昔",风味牛奶
H3YjkfW8eQ2gYaxJ,LELECHA乐乐茶(中海环宇荟店),https://www.dianping.com/shop/H3YjkfW8eQ2gYaxJ,4.1,1976,19,4.1,4.2,4.2,茶饮果汁,安贞,安定路5号中海环宇荟地B1层B101-2,39.92297764,116.3940903,09:00-21:30,连锁,有团购,"草莓桃子酪酪, 椰椰杨枝甘露, 黑糖波霸脏脏茶（牛乳）",奶茶
H3a5K5WGJRneRlPG,茉莉奶白(北京朝阳大悦城),https://www.dianping.com/shop/H3a5K5WGJRneRlPG,3.9,1579,19,4.0,4.0,3.9,茶饮果汁,青年路,朝阳北路101号8F-27号商铺,39.930884,116.525363,10:00-22:00,连锁,有团购,"茉莉奶白/一朵茉莉花, 栀子奶白/一朵栀子花, 粉茉针王/粉茉抹茶",奶茶
H1v3J8qd5j5L6vnf,茶百道(北京大兴磁各庄店),https://www.dianping.com/shop/H1v3J8qd5j5L6vnf,4.1,71,12,4.1,4.1,4.1,茶饮果汁,大兴区,黄材镇盛顺街20号1层2103,39.708964,116.411527,10:00-22:00,连锁,有团购,"活菌酸奶紫米露, 轻畅羽衣甘蓝, 三重莓果晚安杯",果茶
k2Xtx9u2HdwwOcpV,Uniboba优尼波巴(北京朝阳合生汇店),https://www.dianping.com/shop/H51Arjo5GOvZoKin,4.2,113,18,4.2,4.2,4.2,茶饮果汁,九龙山,西大望路甲22号院1号楼B1层21街区95号,39.899416,116.487814,10:00-22:00,连锁,有团购,"Boba奶茶黑糖丸, 开心果牛乳咸法酪, 抹茶牛乳黑糖丸",奶茶
H382fdzfAhPisQNR,蜜雪冰城(和美汇店),https://www.dianping.com/shop/H382fdzfAhPisQNR,3.6,20,6,3.6,3.7,3.6,茶饮果汁,五里坨,石门路326号院1号楼4层03B号,39.949123,116.423345,10:00-22:00,连锁,有团购,"草莓摇摇奶昔, 奥利奥雪王大圣代, 山楂莓莓",风味牛奶
k2Xtx9u2HdwwOcpV,来一葫(北京合景·摩方购物中心店),https://www.dianping.com/shop/l5ZEf3UfBCYKuhPy,4.3,200,23,4.3,4.4,4.4,茶饮果汁,崇文门,北京市东城区崇文门外大街1号,39.90576628,116.4239508,10:00-20:00,连锁,有团购,"一葫橙, 葫芦服, 元气柠檬汁",果茶
k2Xtx9u2HdwwOcpV,CoCo都可(环球金融中心店),https://www.dianping.com/shop/l3g5JoQB3DtYPk41,3.4,3,14,3.4,3.4,3.4,茶饮果汁,朝外大街,阜成门外大街2号F1-05,39.928496,116.360541,08:30-20:00,连锁,有团购,"杨枝甘露, 三兄弟牛乳茶, 铁观音阿达子",纯茶
k2Xtx9u2HdwwOcpV,蔬时·果蔬茶(长楹天街店),https://www.dianping.com/shop/G350ZTx3yZfgAebD,3.9,467,18,3.9,3.9,3.9,茶饮果汁,常营,常营中街龙湖北京长楹天街内(近常营天街足球俱乐部)地下二层,40.03244773,116.4444653,10:00-21:00,连锁,有团购,"轻体小绿杯, 一日量小绿瓶, 羽衣牛油果卡士",其他
G3aXHJ1TQVlSz8fh,CHAGEE霸王茶姬(北京航城世界坊店),https://www.dianping.com/shop/G3aXHJ1TQVlSz8fh,4.2,285,17,4.3,4.3,4.3,茶饮果汁,空港社区,CHAGEE霸王茶姬(北京航城世界坊店),39.739898,116.19187,,非连锁,无团购,"霸王茶姬, 花田乌龙, 山野栀子",纯茶
k2Xtx9u2HdwwOcpV,茉莉奶白(北京京西大悦城店),https://www.dianping.com/shop/l3JDeFjZyQBCCdKQ,4.1,675,19,4.1,4.1,4.1,茶饮果汁,苹果园,阜石路173号院1号楼京西大悦城B2-C21号,39.93172501,116.1895049,10:00-22:00,连锁,有团购,"茉莉奶白, 栀子奶白, 一朵茉莉花",奶茶
H73aGTyG57r7FhzO,LINLEE林里·手打柠檬茶(西城JK FUN商城店),https://www.dianping.com/shop/H73aGTyG57r7FhzO,4.1,316,19,4.1,4.2,4.1,茶饮果汁,西直门/动物园,西直门外大街116号JKFUN商城B1层B05,39.943585,116.350865,10:00-22:00,连锁,有团购,"招牌手打柠檬茶, 单丛鸭屎香手打柠檬茶, 海底椰手打冰柠茶",果茶
k2Xtx9u2HdwwOcpV,奈喜乐·分子果汁(中关村店),https://www.dianping.com/shop/G3lBj3EVirKzKsvm,3.5,7,21,3.5,3.5,3.6,茶饮果汁,中关村,海淀街道中关村图书大厦,39.9899585,116.3210621,09:00-22:30,连锁,有团购,"白桃穿刺手打柠檬茶, 多汁葡萄冰柠茶, 闽南芭乐柠檬茶",果茶
k2Xtx9u2HdwwOcpV,Jazcu珍仕菓鲜榨果汁(龙湖北京亦庄天街店),https://www.dianping.com/shop/l4ZEDin8dDtnk0Rn,4.6,266,27,4.5,4.5,4.5,茶饮果汁,亦庄龙湖天街,西大望路21号合生汇F4层,39.89988132,116.4859291,10:00-22:00,连锁,有团购,"超模红菜头ABC, 牛油果酸奶冰, 胡萝卜橙C",风味牛奶
G34TB2MWZRWryymm,茉莉奶白(北京垡头永辉店),https://www.dianping.com/shop/G34TB2MWZRWryymm,3.9,187,21,3.8,3.9,3.9,茶饮果汁,北京欢乐谷,西大望路21号合生汇西区负一楼,39.89988132,116.4859291,10:00-22:00,连锁,有团购,"茉莉奶白, 一朵茉莉花, 白兰",奶茶
k2Xtx9u2HdwwOcpV,绿牛果果(五棵松华熙店),https://www.dianping.com/shop/G3nwYNGhdfeFH7r6,3.8,42,23,3.8,3.8,3.9,茶饮果汁,五棵松,复兴路华熙广场负一层,39.91678427,116.283157,10:00-22:00,连锁,有团购,"芒橙CP芒果+橙子, 芒果奶昔, 雪梨凤梨饮",果茶
k2Xtx9u2HdwwOcpV,奈喜乐·分子果汁(五棵松店),https://www.dianping.com/shop/H73nXYKytCwrOe2k,3.5,6,21,3.6,3.7,3.6,茶饮果汁,五棵松,复兴路69号五棵松万达广场万达广场南区LG,39.91872741,116.2829427,18,非连锁,无团购,"泰凉手打深萃柠檬茶, 多汁葡萄冰柠茶, 牛油果羽衣甘蓝草莓酸奶",果茶
k9kfrlLlWWBs4CWL,FULLCHA·赋茶,https://www.dianping.com/shop/k9kfrlLlWWBs4CWL,3.5,2,6,3.5,3.5,3.5,茶饮果汁,顺义区,北京市西城区马连道南街华睦大厦写字楼12楼1216号,39.88034669,116.3348911,暂无,非连锁,有团购,"西瓜生打椰椰, 芝芝凤梨, 圣代",甜品/小吃
kaC79txqwwfNemPK,LINLEE林里·手打柠檬茶(顺义欧陆广场店),https://www.dianping.com/shop/kaC79txqwwfNemPK,4.4,103,18,4.4,4.4,4.4,茶饮果汁,国展,新顺南大街8号院1幢一层F1-07（华联商厦）,39.93443855,116.6461634,10:00-22:00,连锁,有团购,"招牌手打柠檬茶, 香柠椰青水, 白葡萄冰柠茶",果茶
H7Z94NfVCgRJl6cx,甜啦啦鲜果茶(金帝未来店),https://www.dianping.com/shop/H7Z94NfVCgRJl6cx,3.6,5,9,3.6,3.6,3.6,茶饮果汁,顺义城区,北京市军营街16号院2号楼1至2层104,40.1138792,116.6383765,09:30-22:00,连锁,有团购,"西瓜椰椰爽, 西瓜马蹄水, 西瓜爽爽桶",其他
G4uIzBu2cVHZftAm,沪上阿姨·精选茶饮(怀柔雁栖店),https://www.dianping.com/shop/G4uIzBu2cVHZftAm,3.6,9,15,3.6,3.6,3.6,茶饮果汁,雁栖开发区,北京市朝阳区双井街道东柏街10号院-2号楼,39.90024589,116.4732087,09:30-20:30,连锁,有团购,"轻芝爆汁葡萄冻, 夏梦蜜桃, 粉心芭乐桃",其他
k2Xtx9u2HdwwOcpV,牛茶·燕窝饮品(五棵松华熙LIVE店),https://www.dianping.com/shop/l1EurxmykXQmeKsr,4.4,175,29,4.4,4.5,4.5,茶饮果汁,五棵松,复兴路华熙LIVE-b1152,39.91719482,116.2838457,10:00-22:00,连锁,有团购,"燕窝桃胶奶茶, 燕窝桃胶银耳汤, 燕窝阿胶女神茶（含10克鲜炖燕窝）",奶茶
k2Xtx9u2HdwwOcpV,原始鲜屿(西直门店),https://www.dianping.com/shop/H3mQLwmioDoA9E6V,3.8,36,18,3.8,3.8,3.8,茶饮果汁,北下关,西直门北大街天兆家园41号,39.95875352,116.3595058,08:00-24:00,连锁,有团购,"白桃生榨黄皮, 冰摇黄杏, 莲雾桃桃",其他
k2Xtx9u2HdwwOcpV,Yes Lemon就是柠·手打柠檬茶(中关村大融城店),https://www.dianping.com/shop/l1StpgwvuYuvJyZG,3.7,145,19,3.7,3.7,3.7,茶饮果汁,中关村,北京市中关村大街15号西区A地块LG2层10B室,39.9880952,116.318113,10:00-22:00,连锁,有团购,"泰式凉凉霸王杯, 元气芭乐柠, 鸭屎香手打柠檬茶",其他
k2Xtx9u2HdwwOcpV,爆蔗·首创甘蔗茶(辉煌国际店),https://www.dianping.com/shop/H7IJgvAbzEb6Fmxk,3.8,303,16,3.8,3.8,3.8,茶饮果汁,上地,上地十街1号院6号楼地下一层B19号,40.059727,116.30928,09:30-21:00,连锁,有团购,"海南莲雾与桃, 岭南甘蔗油柑王, 闽南芭乐王",其他
k2Xtx9u2HdwwOcpV,山茶赋新中式鲜奶茶(五棵松店),https://www.dianping.com/shop/H7AK3KfsiQKTFOAs,3.6,7,21,3.6,3.6,3.6,茶饮果汁,五棵松,北京市东城区交道口街道南锣鼓巷86号,39.94180709,116.409564,暂无,连锁,有团购,"芭乐柠柠, 翠芽观音, 山野小黄杏",纯茶
k2Xtx9u2HdwwOcpV,奈喜乐·分子果汁(望京店),https://www.dianping.com/shop/l2HWSNdH3e1C5NR1,3.5,9,21,3.5,3.5,3.5,茶饮果汁,望京,酒仙桥路10号院36号楼1层,40.6693868,116.6904207,18,连锁,有团购,"满分西瓜水蜜桃味, 鲜萃西瓜, 多汁葡萄冰柠茶",果茶
k2Xtx9u2HdwwOcpV,蜜雪冰城(衙门村店),https://www.dianping.com/shop/H6wk5TlGmBh9t5vK,3.6,10,8,3.6,3.6,3.6,茶饮果汁,顺义区,新顺北大街西单车站旁,39.91568031,116.3809683,11:00-19:00,连锁,有团购,"椰椰拿铁, 葡萄冰美式, 山楂酸奶",风味牛奶
H3tJ2vAdcS0lPmQV,奈喜乐·分子果汁(十里河店),https://www.dianping.com/shop/H3tJ2vAdcS0lPmQV,3.6,6,16,3.6,3.6,3.6,茶饮果汁,十里河,酒仙桥路10号院36号楼1层,40.6693868,116.6904207,18,连锁,有团购,"泰凉手打深萃柠檬茶, 多汁葡萄冰柠茶, 闽南芭乐柠檬茶",果茶
G2mNcC92roRm6ta6,茶百道(庞各庄店),https://www.dianping.com/shop/G2mNcC92roRm6ta6,3.8,24,17,3.7,3.8,3.8,茶饮果汁,庞各庄,博兴八路与兴海路交叉口西北角龙湖北京亦庄天街5层21室,40.03244773,116.4444653,10:00-22:00,连锁,无团购,"杨枝甘露, 青提茉莉, 竹香芒打椰",其他
l63I8HxNELB3RQYa,茶梦令(朝阳长楹天街店),https://www.dianping.com/shop/l63I8HxNELB3RQYa,4.4,186,14,4.4,4.3,4.4,茶饮果汁,常营,朝阳北路长楹天街购物中心西区B2层,39.93082649,116.6060742,10:00-22:00,连锁,有团购,"蜜桃乌龙奶沫, 白兰龙井奶沫, 白兰龙井雪顶",纯茶
k2Xtx9u2HdwwOcpV,京东健康之业堂茶饮药膳店,https://www.dianping.com/shop/l5rCfLIhkIl8RDAo,3.9,57,27,3.9,3.9,3.9,茶饮果汁,亦庄,北京市密云区光明街长安小区13号楼4单元13-8号,40.37782603,116.849956,09:00-20:00,非连锁,有团购,"春漾元气茶, 春季时令菜团子, 豆乳黑芝麻布丁",纯茶
FQ7mrESkaiQcsbZV,LINLEE林里·手打柠檬茶(海淀嘻三里美食商业街店),https://www.dianping.com/shop/FQ7mrESkaiQcsbZV,4.2,162,18,4.2,4.2,4.2,茶饮果汁,西三旗,八里庄路62号院1号楼-1层-101(C08)商铺,39.934458,116.283684,09:00-23:30,连锁,有团购,"招牌手打柠檬茶霸王杯, 西瓜海底椰, 白葡萄冰柠茶",果茶
l90aQX5TtwR4Iegk,茶店长·手作黑糖珍珠奶茶(平谷万达店),https://www.dianping.com/shop/l90aQX5TtwR4Iegk,4.1,58,10,4.1,4.2,4.2,茶饮果汁,平谷城区,北京市平谷区兴谷街道谷丰东路31号院万达广场F3,40.16520587,117.1269158,10:00-22:00,连锁,有团购,"黑糖珍珠牛奶, 茉莉黑糖珍珠奶茶, 经典黑糖珍珠奶茶",奶茶
k2Xtx9u2HdwwOcpV,甄果初酸奶水果捞(新辰天地大兴南区店),https://www.dianping.com/shop/l93LshGjlKyrr1Rn,3.6,46,20,3.6,3.7,3.7,茶饮果汁,黄村,瑞宝街道东晓南路1297号南州花园5期南门（南洲地铁站D口步行390米）,40.149274,117.1254,10:00-21:00,连锁,有团购,"青提拉丝酸奶水果捞, 霸气绿钻葡萄, 海红山楂酸奶昔",风味牛奶
FExAGBb7qkm6JZve,CHAGEE霸王茶姬(通州苏宁百货店),https://www.dianping.com/shop/FExAGBb7qkm6JZve,4.4,607,18,4.4,4.3,4.3,茶饮果汁,通州北苑,新华西街58号院1号楼1层107-1016、1013,39.913366,116.653351,10:00-21:30,连锁,有团购,"伯牙绝弦, 桂馥兰香, 花田乌龙",纯茶
k2Xtx9u2HdwwOcpV,风亭叙新中式茶饮(合生广场店),https://www.dianping.com/shop/l9QUrsNOSQhNDkRk,3.6,23,15,3.6,3.7,3.7,茶饮果汁,洋桥/木樨园,永外路果园8号,39.89379408,116.6609086,09:00-22:30,连锁,有团购,"人参马蹄茉莉, 洛神山楂乌梅茶, 十里桃花",果茶
F9YOpKzPxGSbefKn,CHAGEE霸王茶姬(长辛店老镇店),https://www.dianping.com/shop/F9YOpKzPxGSbefKn,4.2,113,18,4.1,4.1,4.2,茶饮果汁,云岗,北京市长辛店街道长辛店大街135号长辛店老镇DK6-1房屋,39.82831391,116.2140228,11:00-20:00,连锁,有团购,"玫瑰丛中, 桂馥兰香, 万里木兰",其他
k2Xtx9u2HdwwOcpV,长春堂顺时而饮(北京八中店),https://www.dianping.com/shop/H5xEJVSk3kdWLp3O,4.2,182,23,4.2,4.2,4.4,茶饮果汁,金融街,五四大街28号,39.930463,116.411651,08:00-20:00,连锁,有团购,"杏仁豆腐桂花茶, 驴打滚奶茶, 黑豆芝麻老盐茶",奶茶
la6Lq2qefmh36Oyu,爷爷不泡茶 NOYEYENOTEA(北京西单大悦城店),https://www.dianping.com/shop/la6Lq2qefmh36Oyu,4.1,668,18,4.1,4.2,4.1,茶饮果汁,西单,拱辰北大街龙湖北京房山天街B1-20b号,39.73748984,116.149923,10:00-22:00,连锁,有团购,"荔枝冰酿, 咸宁桂花, 空山栀子",其他
H4veyE6mlEB5qL5z,爷爷不泡茶 NOYEYENOTEA(北京蓝色港湾店),https://www.dianping.com/shop/H4veyE6mlEB5qL5z,3.7,84,19,3.7,3.7,3.7,茶饮果汁,蓝色港湾,公园路6号SOLANA蓝色港湾G,39.95469152,116.4832068,10:00-21:30,连锁,有团购,"荔枝冰酿, 空山栀子, 白兰玉露",其他
H52aaUzmkxZRcKYa,茶百道(石景山财富中心店),https://www.dianping.com/shop/H52aaUzmkxZRcKYa,3.9,71,18,3.9,3.9,3.9,茶饮果汁,古城/八角,远大路世纪金源购物中心东区5层5436号,39.96538415,116.2958378,10:00-23:30,连锁,有团购,"洛神梅子柠檬茶, 招牌芋圆, 葡萄冻冻",果茶
lai4yp7ZhcJcN4wX,沪上阿姨·精选茶饮(石景山和美汇店),https://www.dianping.com/shop/lai4yp7ZhcJcN4wX,3.8,30,17,3.8,3.8,3.7,茶饮果汁,五里坨,北京市石景山区石门路青山公园东北侧约50米石景山和美汇F2,39.9620936,116.1316334,10:00-22:00,连锁,有团购,"草莓牛乳奶冻, 厚芋芝芝真牛乳, 大红袍鲜柠茶",风味牛奶
k2Xtx9u2HdwwOcpV,七天牧场鲜奶吧(常营店),https://www.dianping.com/shop/l8QVNVPJGtRd1RRs,3.7,25,11,3.8,3.8,3.7,酸奶鲜奶,常营,常营长楹星座1栋3层C317（在商场的后面）,39.929884,116.602597,07:00-18:00,连锁,有团购,"巴氏鲜牛奶, 希腊冷萃酸奶, 七天牧场奶皮子酸奶",风味牛奶
k2Xtx9u2HdwwOcpV,奈喜乐·分子果汁(广安门店),https://www.dianping.com/shop/l8JEjc4uhNItcPSu,3.6,15,24,3.6,3.6,3.6,茶饮果汁,广外大街,北京市广安门外大街305号八区15、16、17号楼1层101-8,39.90030339,116.3430254,10:00-24:00,连锁,有团购,"鲜萃西瓜汁, 爆汁大橘茉莉, 牛油果羽衣甘蓝草莓酸奶",风味牛奶
G1sdihtxdPn9bSPd,茶话弄(北京新城国际2期店),https://www.dianping.com/shop/G1sdihtxdPn9bSPd,4.0,105,16,4.0,4.0,4.0,茶饮果汁,朝外大街,崇文门外大街国瑞城购物中心G层宝食港超级美食街区FC-17号商铺,39.90440629,116.4263162,,连锁,有团购,"桂花引, 梅占摇红, 南山烟雨",其他
k2Xtx9u2HdwwOcpV,鹿野制菓·铜锣烧(大族广场店),https://www.dianping.com/shop/H44ohQ7eiRncFJoj,3.9,95,17,3.9,4.0,3.9,茶饮果汁,亦庄,合生麒麟社b1层喜家德对面,40.003069,116.48409,10:00-22:00,连锁,有团购,"牛乳巧克力, 朗姆葡萄, 海盐芝士",风味牛奶
k2Xtx9u2HdwwOcpV,NIBU yogurt 宁布酸奶·蒙古族酸奶碗,https://www.dianping.com/shop/G5WghKmcgFsR4Ywm,4.0,1063,28,4.0,3.9,4.1,酸奶鲜奶,大望路,万达广场4FJY-BX-402,39.91207909,116.231898,09:00-23:00,非连锁,有团购,"炒米奶皮子糖葫芦, 双奶皮拍扁山楂糖葫芦, mini奶皮子糖葫芦",其他
k2Xtx9u2HdwwOcpV,Yes Lemon就是柠·手打柠檬茶(华堂·新辰汇店),https://www.dianping.com/shop/l6AGY0IOKyH7sAFT,3.7,47,15,3.7,3.7,3.7,茶饮果汁,亚运村,北四环东路108号华堂新辰汇二层,39.994159,116.427255,10:00-21:30,连锁,有团购,"泰式凉凉柠檬茶, 超级桃桃柠檬茶, 橙香龙井霸王杯",果茶
l6AaIKLXIh8mhc0T,奈雪的茶(北京亦庄龙玥城店),https://www.dianping.com/shop/l6AaIKLXIh8mhc0T,4.2,532,19,4.3,4.3,4.2,茶饮果汁,亦庄,北京市大兴区科创五街38号龙玥城,39.80882538,116.5389861,09:00-22:00,连锁,有团购,"茉莉初雪奶茶, 霸气杨枝甘露, 不加糖黑葡萄花青素杯",奶茶
G20wwAoSm8xicVxb,CHAGEE霸王茶姬(北京石景山万达店),https://www.dianping.com/shop/G20wwAoSm8xicVxb,4.1,721,19,4.2,4.2,4.1,茶饮果汁,鲁谷,石景山路乙18号万达广场F3层,39.91207909,116.231898,10:00-22:00,连锁,有团购,"伯牙绝茶, 花田乌龙, 桂馥兰香",纯茶
k2Xtx9u2HdwwOcpV,奈喜乐(北苑上品店),https://www.dianping.com/shop/l6VmMpDYl5UEVkb4,3.5,4,21,3.5,3.5,3.5,茶饮果汁,北苑家园,北苑路甲13号院上品+2号楼1层詹记桃酥隔壁,39.90691945,116.2871419,,非连锁,无团购,"泰凉手打深萃柠檬茶, 闽南芭乐柠檬茶, 多汁葡萄冰柠茶",果茶
k2Xtx9u2HdwwOcpV,山茶赋新中式鲜奶茶(双井店),https://www.dianping.com/shop/FaILJTTYyT3qy8nN,3.6,2,21,3.6,3.6,3.6,茶饮果汁,双井,北京市东城区交道口街道南锣鼓巷86号,39.94180709,116.409564,暂无,连锁,有团购,"暴打香柠玫瑰, 杨梅冰柠茶, 老北京冰糖葫芦吨吨桶",果茶
H4GcnvWD05RwUaFr,甜啦啦鲜果茶(东三旗中心街店),https://www.dianping.com/shop/H4GcnvWD05RwUaFr,3.5,8,9,3.5,3.5,3.5,茶饮果汁,北七家,东三旗村立汤路王婆大虾旁,40.09514696,116.4215035,10:00-24:00,连锁,有团购,"西瓜马蹄水, 西瓜椰椰爽, 西瓜爽爽桶",其他
k2Xtx9u2HdwwOcpV,Yes Lemon就是柠·手打柠檬茶(北京朝阳合生汇店),https://www.dianping.com/shop/l73FGdWP8K8g935M,4.0,3614,19,4.0,4.0,4.0,茶饮果汁,九龙山,北京市朝阳区西大望路21号北京朝阳合生汇B1,39.8993199,116.4858938,,非连锁,无团购,"泰式凉凉霸王杯, 鸭屎香手打柠檬茶, 泰式凉凉柠檬茶",果茶
k2Xtx9u2HdwwOcpV,蜜雪冰城(太阳宫店),https://www.dianping.com/shop/FzD7EdbUs2BwI6eR,3.5,43,8,3.5,3.5,3.5,茶饮果汁,太阳宫,雍和宫大街60号（北新桥地铁站B东北口步行220米),39.94758477,116.4285983,,非连锁,无团购,"柠檬水, 蓝莓果粒茶, 四季春轻乳茶",果茶
H6TONrfUQDPMhyjp,CHAGEE霸王茶姬(北京竞园国际影像产业基地店),https://www.dianping.com/shop/H6TONrfUQDPMhyjp,4.0,551,19,4.0,4.0,4.0,茶饮果汁,百子湾,兴华大街37号大兴新辰天地铺位1F-031,39.69470209,116.325527,10:30-19:30,连锁,有团购,"伯牙绝弦, 桂馥兰香, 花田乌龙",纯茶
k2Xtx9u2HdwwOcpV,Juice Market(王府井APM店),https://www.dianping.com/shop/l7paOlepRLTYjfoU,4.4,337,26,4.5,4.6,4.5,茶饮果汁,王府井/东单,北京市东城区王府井大街138号北京APM商场B1层,39.92127027,116.4178285,10:00-22:00,连锁,有团购,"小橙杯, 百香果黄玉蔗, 羽衣甘蓝",果茶
H4KOg6HrAJfqhflk,喜茶(北京龙玥城店),https://www.dianping.com/shop/H4KOg6HrAJfqhflk,3.8,405,18,3.8,3.8,3.8,茶饮果汁,亦庄,北京市大兴区荣华街道经海二路龙玥城科创五街38号一层C0021号,39.80136129,116.5782586,10:00-20:00,连锁,有团购,"多肉葡萄(首创), 烤黑糖波波真乳茶, 芒芒甘露",奶茶
k9LJX8UTwcfnjibS,蜜雪冰城(龙玥城店),https://www.dianping.com/shop/k9LJX8UTwcfnjibS,3.8,48,12,3.7,3.7,3.8,茶饮果汁,亦庄,科创五街38号院1号楼三层F3-DJ-0006b,39.90466,116.4133837,09:30-21:30,连锁,有团购,"椰椰拿铁, 冰鲜柠檬汁, 葡萄冰美式",果茶
G68fMim3A9hdneSs,CHAGEE霸王茶姬(华堂新辰汇店),https://www.dianping.com/shop/G68fMim3A9hdneSs,3.7,211,19,3.7,3.7,3.7,茶饮果汁,亚运村,建国路93号院A座01层01东区百货内L01F023,40.10473917,116.227384,10:00-22:00,连锁,有团购,"花田乌龙, 青青糯山, 桂馥兰香",纯茶
k2Xtx9u2HdwwOcpV,甜啦啦鲜果茶(永乐店),https://www.dianping.com/shop/k9641bCWEOYe7UpP,3.7,6,9,3.6,3.7,3.7,茶饮果汁,通州区,北京市永乐店镇永一村543-1号,39.71612169,116.795186,09:30-22:00,连锁,有团购,"西瓜椰椰爽, 桃桃圣代, 芒芒圣代",甜品/小吃
k2Xtx9u2HdwwOcpV,茶救星球·蔬果茶(新奥购物中心店),https://www.dianping.com/shop/G5eUwpabaQHKdVLN,4.1,347,19,4.1,4.2,4.1,茶饮果汁,鸟巢/水立方,东三环中路7号财富购物中心2层208号店铺,39.92333177,116.4655388,10:00-22:00,连锁,有团购,"苦瓜柠檬茶, 斑斓薄荷柠檬茶, 葡萄柠檬茶",果茶
k2Xtx9u2HdwwOcpV,吴裕泰(奶茶·冰淇淋·牛街店),https://www.dianping.com/shop/G9ffke3Bej7Y53zx,3.8,94,15,3.8,3.8,3.8,茶饮果汁,牛街,吐列毛杜大街南5号,39.902882,116.4133837,08:30-20:30,连锁,有团购,"花茶冰淇淋, 抹茶口味冰淇淋, 茉莉醇奶茶",甜品/小吃
k2Xtx9u2HdwwOcpV,神农茶堂,https://www.dianping.com/shop/G9EmBjJhIQ1h9lRI,3.8,16,18,3.8,3.8,3.8,茶饮果汁,中关村,北京市丰台区石榴庄街道宋庄路26号院11号楼万科红商业,39.85227365,116.4362088,10:00-22:00,非连锁,有团购,"茉莉绿茶, 纯桂花饮, 冰荔枝乌龙",纯茶
k2Xtx9u2HdwwOcpV,雀喜黑糖珍珠奶茶铺,https://www.dianping.com/shop/k2EbesuA7KUILydy,3.8,10,9,3.7,3.8,3.8,茶饮果汁,顺义城区,南宁市西乡塘区园艺路启明星幼儿园北侧约110米,39.856263,116.3047816,10:00-22:00,非连锁,有团购,"黑糖珍珠奶绿, 黑糖珍珠牛奶, 黑糖珍珠抹茶",奶茶
G97fH4s5jb9uopd9,CHAGEE霸王茶姬(北京双桥万达店),https://www.dianping.com/shop/G97fH4s5jb9uopd9,4.1,349,18,4.1,4.1,4.0,茶饮果汁,双桥,乐业路10号院1号楼1层101-1035,40.6693868,116.6904207,10:00-22:00,连锁,有团购,"山野栀子, 春日桃桃, 万里木兰",其他
k2ZIRNKsDWjprIv8,CHAGEE霸王茶姬(电子城IT产业园店),https://www.dianping.com/shop/k2ZIRNKsDWjprIv8,4.1,223,19,4.0,4.1,4.1,茶饮果汁,798/大山子,三里屯一号场T+MALL（L1-21）,39.94326189,116.453636,10:30-18:30,连锁,有团购,"伯牙绝弦, 晴山栖谷, 桂馥兰香",其他
k2Xtx9u2HdwwOcpV,高大泡·新中式养生茶饮,https://www.dianping.com/shop/k32Hy4eu3UZfrGk9,3.9,143,16,3.9,3.9,3.9,茶饮果汁,地安门,望京西园二区京电底商综合楼1(1层008)室（张一元茶庄）,40.00974988,116.4798012,11:00-20:00,非连锁,有团购,"古法秘制酸梅汁, 秘制杏皮水, 京华陈韵",其他
k2Xtx9u2HdwwOcpV,咖咔芝茶(丰科万达店),https://www.dianping.com/shop/G8Z0z2EB689doCRu,3.7,27,10,3.7,3.7,3.7,茶饮果汁,世界公园,丰科路万达金街一层900857号,39.91120583,116.6476917,10:00-22:00,连锁,有团购,"白桃乌龙冻柠茶, 芋泥麻薯奶茶, 【新品尝鲜】香橙山茶花",果茶
k3gRttiK8p02WwmC,LINLEE林里·手打柠檬茶(海淀大悦城店),https://www.dianping.com/shop/k3gRttiK8p02WwmC,3.9,464,19,3.9,3.9,3.9,茶饮果汁,西北旺,民族大学西路魏公村佳苑一层105,39.96369458,116.3299952,10:00-22:00,连锁,有团购,"招牌手打柠檬茶霸王杯, 清新手打柠檬茶, 热桃桃乌龙手打柠檬茶",果茶
k2Xtx9u2HdwwOcpV,茶百道(东方新天地店),https://www.dianping.com/shop/H2ewIW9MZFpzfa3l,3.8,74,16,3.8,3.8,3.8,茶饮果汁,王府井/东单,东长安街东方广场东方新天地一层,39.91571061,116.420954,10:00-22:00,连锁,有团购,"草莓奶冻, 蜀实耙耙柑, 奥利奥奶茶",奶茶
k46ywMUQurUQZqGR,想巷奶茶,https://www.dianping.com/shop/k46ywMUQurUQZqGR,3.5,29,19,3.5,3.5,3.5,茶饮果汁,顺义城区,五江碧桂园三楼万达影城旁,39.830275,116.191243,10:00-22:00,非连锁,无团购,"想巷奶茶, 盐盐海芋恋, 奥利奥芋头风暴",奶茶
G9glyUOEBTvP9qJt,LINLEE林里·手打柠檬茶(平谷万达广场店),https://www.dianping.com/shop/G9glyUOEBTvP9qJt,3.7,145,17,3.7,3.7,3.7,茶饮果汁,平谷城区,平谷镇新平北路56号楼,40.15112881,117.1161073,10:00-22:00,连锁,有团购,"招牌手打柠檬茶, 特浓手打柠檬茶, 白葡萄冰柠茶",果茶
k1DPJvxgmxaLHF4f,爷爷不泡茶 NOYEYENOTEA(北京五棵松华熙店),https://www.dianping.com/shop/k1DPJvxgmxaLHF4f,4.1,355,18,4.0,4.1,4.1,茶饮果汁,五棵松,复兴路69号华熙LIVE广场B1（近costa）,39.91604417,116.2858128,10:00-24:00,连锁,有团购,"荔枝冰酿, 咸宁桂花, 空山栀子",其他
k2Xtx9u2HdwwOcpV,Yee3·三号椰(北京新中关店),https://www.dianping.com/shop/HaT3Y6tF3Xa6ActY,4.0,281,20,4.0,4.0,4.0,茶饮果汁,中关村,中关村大街19号新中关购物中心B1-119,39.90061101,116.2396997,10:00-22:00,连锁,有团购,"开心果椰子糖, 生椰抹茶, 奥利奥风暴椰子糖",奶茶
GaslhFcTTCPEl8q0,茶百道(辉煌国际店),https://www.dianping.com/shop/GaslhFcTTCPEl8q0,4.0,410,15,4.0,4.1,4.0,茶饮果汁,上地,安河家园九里13号楼1层101号-8,39.797548,116.136764,10:00-21:30,连锁,有团购,"草莓奶冻, 蜀实耙耙柑, 鲜紫苏多肉葡萄",果茶
k2Xtx9u2HdwwOcpV,长春堂顺时而饮(学院路店),https://www.dianping.com/shop/HafNHyKtZtweTZTI,4.2,261,22,4.2,4.3,4.3,茶饮果汁,五道口,五四大街28号,39.930463,116.411651,09:00-21:00,连锁,有团购,"杏仁豆腐桂花茶, 老北京芸豆卷牛乳茶, 驴打滚奶茶",奶茶
k2Xtx9u2HdwwOcpV,元想空间(一方四季本草轻养茶),https://www.dianping.com/shop/HaeCtRKkszr9gDGE,3.9,28,19,3.9,3.9,3.9,茶饮果汁,鸟巢/水立方,北京市司水路长城源著2期龙湖长城源著-二期古北口镇司马台村二号院,40.66586318,117.2710367,10:00-19:00,非连锁,无团购,"胖大海秋梨茶, 陈皮洛神赋, 竹蔗茅根生椰水",奶茶
jMNGlYtXboZO0ohg,CHAGEE霸王茶姬(首联世纪生活广场店),https://www.dianping.com/shop/jMNGlYtXboZO0ohg,4.4,329,18,4.3,4.3,4.3,茶饮果汁,云岗,华联顺义金街购物中心一层内F1-46A霸王茶姬,40.13410233,116.6588882,09:00-21:00,连锁,有团购,"花田乌龙, 春日桃桃, 青青糯山",纯茶
HaTy9NUhZNVKIdGl,茶百道(传媒大学地铁A口店),https://www.dianping.com/shop/HaTy9NUhZNVKIdGl,4.1,130,16,4.1,4.1,4.1,茶饮果汁,传媒大学,三间房地区定福庄东街2号楼1层113室内06号(建国路店),39.92809531,116.5666018,10:00-24:00,连锁,有团购,"鲜奶茉莉奶绿, 草莓奶冻, 草莓爆柠",奶茶
k2Xtx9u2HdwwOcpV,榕树家食研中心(丽泽天地店),https://www.dianping.com/shop/HaP06xoYSllX4a3K,3.9,29,16,3.9,3.9,3.9,茶饮果汁,丽泽桥/丰管路,丰台北路17号院1号楼丽泽天地二层榕树家食研中心,39.85810568,116.3057482,10:30-21:00,连锁,有团购,"茉莉百合饮, 茯苓芡实苹果饮, 榕颜玫瑰",果茶
k2Xtx9u2HdwwOcpV,柠季手打柠檬茶(望京万象汇店),https://www.dianping.com/shop/k12H0yWLbxZJQ6h0,4.1,118,17,4.0,4.1,4.1,茶饮果汁,望京,凤凰环路曙光西里甲5号院凤凰汇购物中心负一层B101号,39.96740505,116.460439,10:00-22:00,连锁,有团购,"特浓手打柠檬茶, 茉莉手打柠檬茶（超 大杯）, 泰绿柠檬茶",果茶
H20n2JEakgbmIcVl,CHAGEE霸王茶姬(西铁营万达购物中心店),https://www.dianping.com/shop/H20n2JEakgbmIcVl,4.1,481,18,4.1,4.1,4.0,茶饮果汁,北京南站/开阳里,万通金融中心S001/S009铺位,39.92856209,116.361591,08:30-24:00,连锁,有团购,"伯牙绝弦, 桂馥兰香, 春日桃桃",其他
jekleEp5zUc54kZr,喜茶(北京首创奥莱店),https://www.dianping.com/shop/jekleEp5zUc54kZr,3.7,388,18,3.8,3.8,3.7,茶饮果汁,长阳镇,长兴大街首创奥特莱斯二期一楼东门,39.76907043,116.1953384,10:00-20:00,连锁,有团购,"烤黑糖波波牛乳(首创), 多肉葡萄(首创), 去火*纤体瓶(首创)",奶茶
k2Xtx9u2HdwwOcpV,有堂古·甘草水果(朝阳大悦城店),https://www.dianping.com/shop/jf55AH3gVKAgIKTL,4.4,430,32,4.5,4.5,4.4,茶饮果汁,朝阳大悦城,朝阳北路101号朝阳大悦城8楼06号,39.77044,116.524819,10:00-21:30,连锁,有团购,"潮汕水果·红芭乐, 潮汕水果·青芒果, 潮汕水果·凤梨",果茶
k2Xtx9u2HdwwOcpV,吴裕泰(八达岭长城店),https://www.dianping.com/shop/jfPbd3JWMfyEyUhm,3.6,16,12,3.6,3.6,3.6,茶饮果汁,八达岭,八达岭景区步行街入口50米,39.89970046,116.1270597,,连锁,无团购,抹茶冰淇淋,甜品/小吃
k2Xtx9u2HdwwOcpV,贡茶(食工坊美食城店),https://www.dianping.com/shop/jjW7usEXTRB8QmZ5,3.5,5,16,3.5,3.5,3.5,茶饮果汁,马驹桥,北京市东城区桃园东里20号华夏文化大厦一层,39.87805679,116.4140586,09:00-21:00,连锁,有团购,"草莓爆爆珠奶茶, 焦糖珍珠烤奶, 青柠鲜芒",奶茶
Ha4MzNKWymlqCNZB,CHAGEE霸王茶姬(北京首开LONG街店),https://www.dianping.com/shop/Ha4MzNKWymlqCNZB,4.1,247,18,4.1,4.1,4.0,茶饮果汁,回龙观,北京市大兴区永兴路7号院1号楼大兴龙湖天街1F-01b号,39.69182666,116.3274177,09:00-22:00,连锁,有团购,"伯牙绝弦, 春日桃桃, 晴山栖谷",其他
G9t8TKgp8z1aH4nU,蜜雪冰城(古城南路店),https://www.dianping.com/shop/G9t8TKgp8z1aH4nU,3.6,1,8,3.6,3.6,3.6,茶饮果汁,古城/八角,杨庄东街与晋元庄路交叉口东北角,39.933676,116.20438,10:30-20:00,连锁,有团购,"蓝莓果粒茶, 爽脆魔芋, 芋圆葡萄",果茶
k4PwDtdyP9OifV7O,书亦烧仙草(北京首都机场T2店),https://www.dianping.com/shop/k4PwDtdyP9OifV7O,3.7,97,12,3.8,3.7,3.7,茶饮果汁,首都机场,北京市朝阳区首都机场路北京首都国际机场T2航站楼F2,40.08592813,116.6005864,09:00-21:00,连锁,无团购,"橙漫山茶花, 柚子桃桃白月光, 柚子香柠白月光",果茶
k7lummrChemMQanX,爷爷不泡茶 NOYEYENOTEA(北京798艺术区店),https://www.dianping.com/shop/k7lummrChemMQanX,4.1,88,17,4.2,4.2,4.2,茶饮果汁,798/大山子,酒仙桥路2号院798艺术区七星西街313楼底商,39.99108806,116.502072,,连锁,有团购,"荔枝冰酿, 初恋玫瑰青提, 桃桃双皮奶",其他
k2Xtx9u2HdwwOcpV,柠饮肆·青檸奶茶(合生汇店),https://www.dianping.com/shop/k7Aaa33jHGtsUwGE,4.0,249,20,3.9,4.0,4.1,茶饮果汁,九龙山,广渠路合生汇负一楼B1-16号（霸王茶姬斜对面）,39.89988132,116.4859291,10:00-22:00,连锁,有团购,"青提油柑石榴, 黄皮青柠鲜果茶, 糯香青柠茶",果茶
H83TBQBiI5aeXvV7,喜茶(北京石景山和美汇店),https://www.dianping.com/shop/H83TBQBiI5aeXvV7,3.9,395,18,4.0,3.9,3.8,茶饮果汁,五里坨,石景山区车站路与石门路交叉口往西北110米石景山和美汇,39.92540359,116.1529919,10:00-22:00,连锁,有团购,"烤黑糖波波牛乳(首创), 多肉葡萄(首创), 芒芒甘露",奶茶
k2Xtx9u2HdwwOcpV,福康记茶铺(簋街店),https://www.dianping.com/shop/k7M8hLZlex0DaRNI,3.8,43,16,3.8,3.8,3.9,茶饮果汁,北新桥/簋街,东直门内大街与仓夹道交叉口西侧,39.764206,116.3047816,13,连锁,有团购,"羽衣甘蓝柠檬茶, 现榨胡萝卜汁柠檬茶, 紫气东来",果茶
k2Xtx9u2HdwwOcpV,不已手製柠檬茶(新中关店),https://www.dianping.com/shop/H3LcbbJsDN2LreW6,4.6,167,20,4.5,4.6,4.7,茶饮果汁,中关村,中关村大街19号新中关大厦首层L103号（近北门）,39.98423784,116.3219088,10:00-22:00,连锁,有团购,"杨梅柠檬茶, 不已招牌柠檬红茶, 招牌泰式绿茶",果茶
k2Xtx9u2HdwwOcpV,兰熊鲜奶·牛奶乐园主题店(合生汇店),https://www.dianping.com/shop/G6F0Qxg6ni3fdiVZ,3.9,4365,22,3.9,3.9,3.9,酸奶鲜奶,大望路,永外果园8号楼合生广场B1-05,39.85683432,116.4022132,10:00-22:00,连锁,有团购,"半杯草莓酸奶, 满杯花青素·葡萄牛奶, 芋泥奶酪小熊包",风味牛奶
k2Xtx9u2HdwwOcpV,蜜小朵(小汤山店),https://www.dianping.com/shop/k7aCjOw5FcBxrmKz,3.5,2,10,3.5,3.5,3.5,茶饮果汁,小汤山镇,北京市小汤山镇市场街1号楼13号(1层02),40.18283001,116.3983781,10:00-21:00,连锁,有团购,"龙眼冰茶, 芒果大圣代, 草莓冰淇淋",甜品/小吃
k2Xtx9u2HdwwOcpV,隆延茶鋪·正统奶茶(建国门赛特+购物中心店),https://www.dianping.com/shop/k7k3jEHxVj3PoZsd,3.7,32,17,3.7,3.7,3.7,茶饮果汁,建外大街,建国门外大街22号,39.913177,116.448384,10:00-22:00,连锁,无团购,"隆记米酿奶茶, 山谷黄杏果茶, 荔枝茉莉果茶",奶茶
k7rbqFGdfdvCdXL3,CHAGEE霸王茶姬(房山绿地缤纷城店),https://www.dianping.com/shop/k7rbqFGdfdvCdXL3,4.3,196,18,4.3,4.3,4.3,茶饮果汁,长阳镇,广阳新路9号院1号楼1层105-L1030,39.759056,116.217237,09:00-22:00,连锁,有团购,"桂馥兰香, 春日桃桃, 山野栀子",其他
G6TQ8RhmBTAzaktT,爷爷不泡茶 NOYEYENOTEA(北京熙悦天街店),https://www.dianping.com/shop/G6TQ8RhmBTAzaktT,4.3,262,16,4.3,4.4,4.3,茶饮果汁,良乡,永定镇新城东街17号院4号楼一层141,39.91131728,116.1301203,09:30-21:30,连锁,有团购,"荔枝冰酿, 咸宁桂花, 初恋玫瑰青提",其他
k2Xtx9u2HdwwOcpV,LuckHaHa好运椰·椰子水(北京CBD万达广场店),https://www.dianping.com/shop/k7sXHMsEdXBytnyz,3.7,30,22,3.7,3.7,3.7,茶饮果汁,大望路,丰科路与五圈路交汇处万达广场F6层（万达影城）,39.91207909,116.231898,10:00-22:00,连锁,有团购,"苏丹王榴莲生椰, 粉椰三兄弟, 好运椰乳冻",奶茶
k2Xtx9u2HdwwOcpV,新加坡斯味洛·鲜奶茶(通州万达金街店),https://www.dianping.com/shop/G6B62Wc9Hlk5oFuW,3.4,63,13,3.3,3.4,3.3,茶饮果汁,通州北苑,新华西街万达广场金街B区一层157（8号门旁）,39.742575,116.647692,10:00-22:30,连锁,有团购,"牛油果奶茶, 珍珠奶霜鲜牛乳, 蓝莓安慕希",奶茶
k2Xtx9u2HdwwOcpV,蜜雪冰城(大钟寺抖音总部店),https://www.dianping.com/shop/H7oTDX4dfqqZ77ej,3.6,6,8,3.7,3.6,3.6,茶饮果汁,大钟寺,北京市海淀区大钟寺中坤广场中鼎大厦东侧约70米,39.97257661,116.3473265,09:30-21:30,连锁,有团购,"茉莉拿铁咖啡, 脆皮大圣代, 草莓摇摇奶昔",风味牛奶
k8nAzS6XDvgrMKfA,1点点(北京外国语大学店),https://www.dianping.com/shop/k8nAzS6XDvgrMKfA,3.7,45,16,3.7,3.7,3.7,茶饮果汁,魏公村,文学馆路芍药居北里310号楼底商,39.98966275,116.4422445,10:00-22:00,连锁,有团购,"QQ美莓奶茶, 苹果茉莉绿, 冰淇淋红茶",奶茶
k76C8Ph383rviMYt,茶百道(昌平北科院店),https://www.dianping.com/shop/k76C8Ph383rviMYt,3.7,52,14,3.7,3.8,3.7,茶饮果汁,沙河,洺水东路311号,39.729108,116.4133837,10:00-22:00,连锁,有团购,"超级杯水果茶, 轻畅羽衣甘蓝, 草莓奶冻",纯茶
H2swiRYbA8OYE3uv,爷爷不泡茶 NOYEYENOTEA(北京长安天街店),https://www.dianping.com/shop/H2swiRYbA8OYE3uv,3.8,415,18,3.8,3.8,3.8,茶饮果汁,门头沟城区,新城东街17号院2号楼5层04B号,39.91129,116.129896,9:00-23:00,非连锁,无团购,"荔枝冰酿, 空山栀子, 初恋玫瑰青提",其他
k5MxwB9MnQoM9JBZ,LINLEE林里·手打柠檬茶(朝阳大悦城店),https://www.dianping.com/shop/k5MxwB9MnQoM9JBZ,4.0,544,18,4.1,4.0,4.0,茶饮果汁,朝阳大悦城,东三环中路65号富力广场购物中心三层322号,39.900447,116.467262,10:00-22:00,连锁,有团购,"清新版手打柠檬茶, 草莓海底椰, 苦瓜手打柠檬茶",果茶
k2Xtx9u2HdwwOcpV,鸟觜zi香(合生广场店),https://www.dianping.com/shop/G7bseeOjHDVnMSW1,4.0,85,17,3.9,4.0,4.0,茶饮果汁,洋桥/木樨园,永外果园8号合生广场6层601-06B（电影院前台旁）,39.85683432,116.4022132,10:00-21:00,连锁,有团购,"竹蔗清润饮, 洛神桑桔茶, 雪韵百合茶",果茶
k2Xtx9u2HdwwOcpV,茉莉奶白(北京高德地图总部店),https://www.dianping.com/shop/G7SJc5zRf8yx9kKU,4.3,639,19,4.3,4.3,4.3,茶饮果汁,望京,北京市朝阳望京东园4区4号楼阿里中心高德总部一层104号,40.00811786,116.4969297,09:00-19:00,连锁,有团购,"茉莉奶白, 一朵茉莉花, 栀子奶白",奶茶
G7O5JSkXv3hyuDZ7,鲜果时间·果蔬茶(平谷万达店),https://www.dianping.com/shop/G7O5JSkXv3hyuDZ7,3.8,53,13,3.8,3.8,3.7,茶饮果汁,平谷城区,万达广场LG层,39.91207909,116.231898,10:00-22:00,连锁,有团购,"超级果蔬桶, 番茄莓莓, 薄荷鲜柠",其他
k2Xtx9u2HdwwOcpV,牧场能量(常营站店),https://www.dianping.com/shop/k51RsButlj7IZSGw,3.7,34,14,3.7,3.8,3.8,茶饮果汁,常营,364路;506路;517路;586路;587路;911路,39.932689,116.596597,,连锁,有团购,"葡萄茉莉酸奶, 茉莉芋泥芒芒, 心动蓝莓酸奶",风味牛奶
H5E8B5Kyv5IR6SzE,爷爷不泡茶NOYEYENOTEA(北京望京麒麟社店),https://www.dianping.com/shop/H5E8B5Kyv5IR6SzE,4.3,493,17,4.3,4.3,4.3,茶饮果汁,望京,阜通西大街11号合生·麒麟新天地负一层,39.708964,116.805173,10:00-21:30,连锁,有团购,"荔枝冰酿, 空山栀子, 武汉茉莉",纯茶
k2Xtx9u2HdwwOcpV,国药集团一方四季本草轻养茶(高碑店店),https://www.dianping.com/shop/H2wF8Cy7r3dMrIcx,4.1,93,19,3.9,4.0,4.0,茶饮果汁,朝阳区,北京市朝阳区陶家湾高碑店村别墅区D区43-2号三层,39.90594028,116.5348023,10:00-18:00,连锁,有团购,"小吊梨汤, 红韵丝绒美式, 桃胶润颜牛奶茶",奶茶
k5iNPhaDhErN8zwo,甜啦啦鲜果茶(良乡大学城店),https://www.dianping.com/shop/k5iNPhaDhErN8zwo,3.8,27,9,3.8,3.8,3.8,茶饮果汁,良乡,学园北街26号院2号楼1层102-3商铺,39.731565,116.180281,09:30-21:00,连锁,有团购,"一桶水果茶, 百香金菠萝, 茉莉奶白",奶茶
k2Xtx9u2HdwwOcpV,蜜雪冰城(银座和谐广场店),https://www.dianping.com/shop/k5khp6aW2WGMYS0X,3.7,19,8,3.8,3.8,3.7,茶饮果汁,六里桥/丽泽桥,槐房西路万达广场2楼中庭,39.91207909,116.231898,09:30-22:30,连锁,有团购,"蜜桃四季春, 脆皮大圣代, 奥利奥雪王大圣代",甜品/小吃
k5wCzjOq12SzfSIY,茶话弄(北京西站食宝街店),https://www.dianping.com/shop/k5wCzjOq12SzfSIY,4.2,80,17,4.2,4.2,4.2,茶饮果汁,军事博物馆,北京市西城区西单北大街109号1-3层,39.92020519,116.379806,10:00-22:00,连锁,有团购,"桂花米酿, 梅占摇红, 柑泉肉桂",其他
k2Xtx9u2HdwwOcpV,蜜雪冰城(凯德mall大峡谷店),https://www.dianping.com/shop/k5xFfhks2oo5SW8k,3.6,33,7,3.6,3.6,3.6,茶饮果汁,马家堡/角门,北京市丰台区马家堡街道南三环西路16号凯德MALL·大峡谷F2,39.86048929,116.3732276,10:00-24:00,连锁,有团购,"棒打鲜橙, 山楂莓莓, 芝士奶盖蜜桃",奶茶
k2Xtx9u2HdwwOcpV,王柠·正宗广东柠茶王(昌平同成街华联店店),https://www.dianping.com/shop/G78a7G6WJPZR8zNu,4.5,141,16,4.5,4.4,4.4,茶饮果汁,回龙观,西大望路甲21号合生汇B2,39.89988132,116.4859291,10:00-21:30,连锁,有团购,"石里香柠檬茶王, 柠檬打奶茶, 山茶花鲜柠茶",奶茶
k6NtRHACq2UE1sQl,兰熊鲜奶(颐堤港店),https://www.dianping.com/shop/k6NtRHACq2UE1sQl,4.3,2684,20,4.3,4.3,4.2,酸奶鲜奶,酒仙桥,酒仙桥路颐堤港1F丝芙兰隔壁,39.97504453,116.4977845,10:00-22:00,连锁,有团购,"芋泥鲜牛乳冰淇淋, 芋头泥石流, 莓莓酸奶",风味牛奶
k6PKefrnvkum51Tq,益禾堂(旭辉E天地店),https://www.dianping.com/shop/k6PKefrnvkum51Tq,3.7,7,11,3.7,3.8,3.7,茶饮果汁,良乡,书院南街12号院2号楼125号,39.690675,116.4133837,10:00-22:30,连锁,有团购,"柠檬小麦青汁, 薄荷奶绿霸王桶, 玫瑰轻醋杯",奶茶
